type;name;date;shop;street_adress;state;city;postal_code;country_code;pokemon_url;guid;latitude;longitude;when;status;totalPlayers;TCaccounts;juniors;seniors;masters;league;category;tournament_date;tournament_completed;date_added
"League Challenge";"League Challenge - Bazar de Bagdá (Outubro).";2025-10-24;"BAZAR DE BAGDA";"463 R. DR. GABRIEL PIZA, SP 02036-011, BR";"Sao Paulo";"Sao Paulo";;BR;25-10-002129;2baca3d2-bab1-41bf-8b44-4eaaa5853e57;-23.502;-46.6216;"2025-10-24 20:00:00";;0;0;0;0;0;3493201;;;;2025-09-17
"League Challenge";"Challenge Dominaria";2025-10-24;"DOMINARIA CARDS E GAMES SP";"R. DR. SIQUEIRA CAMPOS, 307 - LIBERDADE, SÃO PAULO - SP, 01509-020, BRAZIL";"Sao Paulo";"Sao Paulo";;BR;25-10-016214;61d64ceb-9435-4cf6-ab89-75fe988ead9f;-23.5637;-46.6359;"2025-10-24 19:30:00";;0;0;0;0;0;6244206;;;;2025-10-17
"League Challenge";"League Challenge Outubro - Bird Games - 24/10";2025-10-24;"BIRD GAMES";"RUA CARDEAL ARCOVERDE, 1595 - 1° ANDAR - PINHEIROS, SÃO PAULO - SP, 05407-002, BRAZIL";"Sao Paulo";"Sao Paulo";;BR;25-10-003406;a4e6511e-b1a3-4482-be40-f161ebfb9ff9;-23.5609;-46.6869;"2025-10-24 19:30:00";;0;0;0;0;0;6244112;;;;2025-09-22
"League Challenge";"League Challenge Caverna do Dragão Ed4";2025-10-25;"CAVERNA DO DRAGÃO";"R. GOIÁS, 79 - BOQUEIRÃO, SANTOS - SP, 11050-101, BRAZIL";"Sao Paulo";Santos;;BR;25-10-013267;08b8d594-1c1b-4aab-9f38-80a25ef72c66;-23.9611;-46.3262;"2025-10-25 12:00:00";;0;0;0;0;0;6243036;;;;2025-10-10
"League Challenge";"League Challenge EpicVale";2025-10-25;"EPIC VALE";"AV. DR. ADEMAR DE BARROS, 322 - VILA IGUALDADE, SÃO JOSÉ DOS CAMPOS - SP, 12243-620, BRAZIL";"Sao Paulo";"Sao Jose dos Campos";;BR;25-10-007438;0a0d533b-08c4-4a8e-86e0-454795f11995;-23.1949;-45.8911;"2025-10-25 11:30:00";;0;0;0;0;0;6242408;;;;2025-10-01
"League Challenge";"Challenge Outubro na Panda Games BR";2025-10-25;"PANDA GAMES BR (NEW)";"43 RUA CORONEL LEME RUA CORONEL LEME, 43, SP 12900-340, BR";"Sao Paulo";"Braganca Paulista";;BR;25-10-002599;1350b4fd-5e46-4a4e-a02b-e7dd8519ed8e;-22.9575;-46.5421;"2025-10-25 10:00:00";;0;0;0;0;0;6237649;;;;2025-09-18
"League Cup";"TCG Cup de Outubro Freak Games";2025-10-25;"FREAK GAMES";"R. ALFREDO PUJOL, 545 - LOJA 1 - SANTANA, SÃO PAULO - SP, 02017-000, BRAZIL";"Sao Paulo";"Sao Paulo";;BR;25-10-015259;1a0b12e6-a2e4-4814-888c-f3990e7bd15b;-23.5003;-46.6313;"2025-10-25 11:00:00";;0;0;0;0;0;6242651;;;;2025-10-15
"League Challenge";"League Challenge Tamer Shop 2025-10";2025-10-25;"TAMER SHOP HOBBY STORE";"R. IPANEMA, 478 - BRÁS, SÃO PAULO - SP, 03164-200, BRAZIL";"Sao Paulo";"Sao Paulo";;BR;25-10-016397;1dcdac4a-05d8-41ba-8060-5698ef9e59bb;-23.5476;-46.6075;"2025-10-25 14:00:00";;0;0;0;0;0;6244494;;;;2025-10-17
"League Challenge";"Epic Level - League Challenge - Oct";2025-10-25;"EPIC LEVEL";"1929 R. PEDRO AMARAL BOA VISTA, SP 15025-043, BR";"Sao Paulo";"Sao Jose do Rio Preto";;BR;25-10-015502;3f2b6656-5468-436f-af8f-d9987280c36e;-20.8018;-49.3852;"2025-10-25 14:30:00";;0;0;0;0;0;6236575;;;;2025-10-15
"League Challenge";"Dungeon Games TCG League Challenge";2025-10-25;"DUNGEON GAMES STORE";"R. DUQUE DE CAXIAS, 317 - LOJA 4, 2º SUBSOLO - CENTRO, BARUERI - SP, 06401-010, BRAZIL";"Sao Paulo";Barueri;;BR;25-10-015682;4a3fcc71-77bd-48e0-b5f6-5ccc85e5ef69;-23.5091;-46.8739;"2025-10-25 14:00:00";;0;0;0;0;0;6244103;;;;2025-10-16
"League Challenge";"League Challenge Red Bridge 25-10-25";2025-10-25;"RED BRIDGE CARD STORE";"R. APOLINÁRIO, 195 - CENTRO, MOGI GUAÇU - SP, 13840-035, BRAZIL";"Sao Paulo";"Mogi Guacu";;BR;25-10-008536;591d08f4-3014-4a9f-88c8-81983c7a8e5a;-22.3728;-46.9415;"2025-10-25 13:00:00";;0;0;0;0;0;6240485;;;;2025-10-02
"League Challenge";"League Chalenge - Outubro 2025 - Tuzzy Cards";2025-10-25;"TUZZY CARDS";"SOHOFFICE - TORRE B - AV. DR. GASTÃO VIDIGAL, 1132 - SALA 811 - VILA LEOPOLDINA, SÃO PAULO - SP, 053";"Sao Paulo";"Sao Paulo";;BR;25-10-004502;6a76fb9d-bec3-4b19-b0df-46d9e72984e6;-23.529;-46.7398;"2025-10-25 13:00:00";;0;0;0;0;0;6244506;;;;2025-09-25
"League Cup";"CUP X1 Arena";2025-10-25;"X1 - ARENA";"R. QUINZE DE NOVEMBRO, 1071 - CENTRO, INDAIATUBA - SP, 13330-070, BRAZIL";"Sao Paulo";Indaiatuba;;BR;25-10-004700;72c09ec5-2b11-42f4-a9b6-24db26741fab;-23.0845;-47.2143;"2025-10-25 10:00:00";;0;0;0;0;0;6241564;;;;2025-09-25
"League Challenge";"Manabolt League Challenge 10-25";2025-10-25;"MANABOLT JOGOS";"R. SRG. PIERROTI, 311 - CENTRO, LIMEIRA - SP, 13480-134, BRAZIL";"Sao Paulo";Limeira;;BR;25-10-018701;778f55d7-3e4f-47b9-a757-475c27323b89;-22.5682;-47.4076;"2025-10-25 15:00:00";;0;0;0;0;0;6243425;;;;2025-10-24
"League Challenge";"PRIMO LEAGUE CHALLENGE - OUTUBRO 2025";2025-10-25;PRIMOCARDS;"1374 AVENIDA PROF. HENRIQUE DA M. F. JR., SP 13660-136, BR";"Sao Paulo";"Porto Ferreira";;BR;25-10-007876;85e173e4-3fee-47df-a6ba-2a6ffd1d6cdd;-21.8639;-47.4877;"2025-10-25 09:30:00";;0;0;0;0;0;6240856;;;;2025-10-01
"League Challenge";"KEDGE CARD GAMES LEAGUE CHALLENGER";2025-10-25;"KEDGE CARD GAMES";"AV. ITALO ADAMI, 585 - 1º ANDAR, SALA 7 - VILA ZEFERINA, ITAQUAQUECETUBA - SP, 08573-000, BRAZIL";"Sao Paulo";Itaquaquecetuba;;BR;25-10-007377;9b464f12-83d7-44fc-ad81-f6bc198a9cf3;-23.4855;-46.3496;"2025-10-25 12:00:00";;0;0;0;0;0;6244391;;;;2025-10-01
"League Challenge";"Piticas Plaza Sul Challenge TCG 10_2025";2025-10-25;"PITICAS_XP PLAZA SUL";"PRAÇA LEONOR KAUPA, 100 - JARDIM DA SAÚDE, SÃO PAULO - SP, 04151-900, BRAZIL";"Sao Paulo";"Sao Paulo";;BR;25-10-012592;a93de7f4-9b52-4f28-b7b1-7fdf01c33303;-23.6197;-46.6268;"2025-10-25 11:00:00";;0;0;0;0;0;2293017;;;;2025-10-10
"League Challenge";"League Challenge TCG Out Arena Geek 26.10.25";2025-10-25;"ARENA GEEK";"RUA DR. ARMANDO SALLES DE OLIVEIRA, 138 - BOQUEIRÃO, SANTOS - SP, 11050-070, BRAZIL";"Sao Paulo";Santos;;BR;25-10-006090;d02b3151-1227-4f0c-a5ee-c91ccde5e91b;-23.961;-46.3311;"2025-10-25 15:30:00";;0;0;0;0;0;6240797;;;;2025-09-28
"League Challenge";"Salto Geek League Challenge - Outubro";2025-10-25;"SALTO GEEK";"R. LUÍS DIAS DA SILVA, 239 - VILA TEIXEIRA, SALTO - SP, 13320-354, BRAZIL";"Sao Paulo";Salto;;BR;25-10-017131;d5c4987b-9f83-477c-9a9f-08a0bc1e9dac;-23.199;-47.3013;"2025-10-25 14:00:00";;0;0;0;0;0;6240050;;;;2025-10-20
"League Challenge";"SUIKA TCG Challenge 10/2025";2025-10-25;"SUIKA GAMES & ANIMES";"71 ALAMEDA BARÃO DE LIMEIRA, SP 01202-001, BR";"Sao Paulo";"Sao Paulo";;BR;25-10-011494;f59224bc-695e-4027-83c6-3e7c8424a6f2;-23.5399;-46.6435;"2025-10-25 10:00:00";;0;0;0;0;0;6235057;;;;2025-10-08
"League Challenge";"dg challenge";2025-10-25;DG;"90 R. FLORIANO PEIXOTO RUA FLORIANO PEIXOTO, 90 - CENTRO, SP 14870-370, BR";"Sao Paulo";Jaboticabal;;BR;25-10-016830;f7a6c360-8a9b-41bf-8fec-96ff10b16d3e;-21.2618;-48.3156;"2025-10-25 09:00:00";;0;0;0;0;0;2353031;;;;2025-10-19
"League Cup";"TCG League Cup Pandora Geek";2025-10-25;"PANDORA GEEK";"AV. ANDRÔMEDA, 1255 - 3 - JARDIM SATÉLITE, SÃO JOSÉ DOS CAMPOS - SP, 12230-000, BRAZIL";"Sao Paulo";"Sao Jose dos Campos";;BR;25-10-002323;f9be45a9-6e32-4d36-a0fd-b4601547c501;-23.2241;-45.8863;"2025-10-25 10:00:00";;0;0;0;0;0;6239243;;;;2025-09-18
"League Cup";"League Cup (OUT/DEZ) - Chuck TCG";2025-10-26;"CHUCK TCG";"R. NITERÓI, 78 - CENTRO, SÃO CAETANO DO SUL - SP, 09510-210, BRAZIL";"Sao Paulo";"Sao Caetano do Sul";;BR;25-10-002205;085edbc4-2eb6-485c-aec9-60a77e8744c6;-23.6147;-46.5704;"2025-10-26 10:00:00";;0;0;0;0;0;4233203;;;;2025-09-17
"League Challenge";"League Challenge Outubro Flow";2025-10-26;"FLOW GAMES";"RUA DONA GENOVEVA D'ASCOLI, 17 - VILA PRUDENTE, SÃO PAULO - SP, 03132-070, BRAZIL";"Sao Paulo";"Sao Paulo";;BR;25-10-004221;11455201-3e87-46b0-9e74-b8e0c635fe90;-23.5816;-46.5849;"2025-10-26 14:00:00";;0;0;0;0;0;6240671;;;;2025-09-25
"League Challenge";"Liga Challenge Gato Guerreiro - Outubro";2025-10-26;"GATO GUERREIRO BAR E JOGOS";"R. GEN. GLICÉRIO, 4152 - VILA REDENTORA, SÃO JOSÉ DO RIO PRETO - SP, 15015-400, BRAZIL";"Sao Paulo";"Sao Jose do Rio Preto";;BR;25-10-007272;4533c62e-fb82-4306-ac4d-bcdc7f92a497;-20.818;-49.3893;"2025-10-26 14:00:00";;0;0;0;0;0;6242152;;;;2025-10-01
"League Challenge";"Akagami Challenge Out";2025-10-26;AKAGAMI;"R. ANTÔNIO CARLOS, 686 - CONSOLAÇÃO, SÃO PAULO - SP, 01309-010, BRAZIL";"Sao Paulo";"Sao Paulo";;BR;25-10-012757;4c418bea-0e1c-43fb-b43e-97fabfe91426;-23.5542;-46.6605;"2025-10-26 12:00:00";;0;0;0;0;0;6244816;;;;2025-10-10
"League Challenge";"Overrun Challenge - Outubro";2025-10-26;"OVERRUN GEEK STORE";"AV. CRISTOVÃO COLOMBO, 1533 - CENTRO, ARARAQUARA - SP, 14801-200, BRAZIL";"Sao Paulo";Araraquara;;BR;25-10-002600;4f0ed67c-90e9-4ab5-8288-d05c93792568;-21.787;-48.1859;"2025-10-26 10:30:00";;0;0;0;0;0;6242862;;;;2025-09-18
"League Challenge";"GODS QUALIFIER";2025-10-26;GODS;"R. PREF. JUSTINO PAIXÃO - CENTRO, SANTO ANDRÉ - SP, 09020-130, BRAZIL";"Sao Paulo";"Santo Andre";;BR;25-10-005023;6c9c081a-c273-41d6-a36c-17d17c216412;-23.6599;-46.5291;"2025-10-26 13:00:00";;0;0;0;0;0;6242821;;;;2025-09-26
"League Cup";"TCG League Cup For Fun Game Shop";2025-10-26;"RUA JOSÉ LUCAS";"R. JOSÉ LUCAS, 255 - CENTRO, ATIBAIA - SP, 12940-700, BRAZIL";"Sao Paulo";Atibaia;;BR;25-10-010648;793d5e61-1340-4b6b-b324-e54ff9adde47;-23.1171;-46.552;"2025-10-26 16:00:00";;0;0;0;0;0;6240615;;;;2025-10-07
"League Cup";"TCG League Cup Kinoene Cards";2025-10-26;"KINOENE CARDS";"53 TV. MAJ. CESAR LEITE, SP 12245-800, BR";"Sao Paulo";"Sao Jose dos Campos";;BR;25-10-002325;ac954db1-5b3a-4b58-99b5-4ff03f1a3037;-23.1897;-45.8864;"2025-10-26 10:00:00";;0;0;0;0;0;6239390;;;;2025-09-18
"League Challenge";"TABERNA GAMES - HallowChallenge";2025-10-26;"TABERNA GAMES - LOJA";"R. RUI BARBOSA, 351 - RIBEIRO, LINS - SP, 16401-040, BRAZIL";"Sao Paulo";Lins;;BR;25-10-017742;b06a839d-ac6e-4fbb-aae2-16a43de502f4;-21.6698;-49.7453;"2025-10-26 14:30:00";;0;0;0;0;0;6243561;;;;2025-10-20
"League Challenge";"CHALLENGE OUTUBRO - PG-SP";2025-10-26;"PLAYGROUND GAMES";"CALÇADA DAS SAMAMBAIAS, 29 - ALPHAVILLE COMERCIAL, BARUERI - SP, 06453-029, BRAZIL";"Sao Paulo";Barueri;;BR;25-10-005074;cef216cf-6045-49aa-b7bf-d9ccea14ad04;-23.4961;-46.8512;"2025-10-26 14:00:00";;0;0;0;0;0;6193219;;;;2025-09-26
"League Challenge";"League Challenge - Seven Seas";2025-10-26;"SEVEN SEAS";"AV. JUSCELINO KUBITSCHEK DE OLIVEIRA, 85 - CENTRO, TAUBATÉ - SP, 12010-600, BRAZIL";"Sao Paulo";Taubate;;BR;25-10-006377;d956f2df-c3cb-4eaf-af01-e198b22e0a5c;-23.025;-45.5639;"2025-10-26 15:30:00";;0;0;0;0;0;6245352;;;;2025-09-29
"League Challenge";"League Challenge Outubro Main Deck";2025-10-27;"MAIN DECK";"R. GALVÃO BUENO, 714 - 2º ANDAR - LIBERDADE, SÃO PAULO - SP, 01506-000, BRAZIL";"Sao Paulo";"Sao Paulo";;BR;25-10-015599;714ae51f-ac0e-466b-997f-7dd65389abcc;-23.562;-46.6349;"2025-10-27 19:35:00";;0;0;0;0;0;6243756;;;;2025-10-16
"League Challenge";"Challenge Outubro/2025";2025-10-28;"MAGIC RAIZ";"R. TEN. AVELAR PÍRES DE AZEVEDO, 359 - CENTRO, OSASCO - SP, 06016-065, BRAZIL";"Sao Paulo";Osasco;;BR;25-10-009734;d6501f83-43c9-4aae-8bfb-ba66d3dac07f;-23.5312;-46.7798;"2025-10-28 19:00:00";;0;0;0;0;0;6237476;;;;2025-10-07
"League Challenge";"League Challenge Legacy tcg 26_04_2025";2025-10-29;"LEGACY TCG";"R. MARIA JOSÉ, QUADRA 8 - VILA SANTA TEREZA, BAURU - SP, 17012-160, BRAZIL";"Sao Paulo";Bauru;;BR;25-10-002151;4de75e02-214d-4bcb-b768-6f65158d74da;-22.3311;-49.0631;"2025-10-29 19:30:00";;0;0;0;0;0;6238617;;;;2025-09-17
"League Challenge";"Challenge de Outubro";2025-10-30;"A GUILDA COLECIONÁVEIS";"1008 R. BERNARDINO DE CAMPOS, SP 13419-100, BR";"Sao Paulo";Piracicaba;;BR;25-10-015066;8155cc22-5b99-469e-807f-deb548b8ed60;-22.7195;-47.6481;"2025-10-30 19:00:00";;0;0;0;0;0;672927;;;;2025-10-15
"League Challenge";"League Challenge Goldhouse | Pokémon TCG";2025-10-30;"LOJA GOLDHOUSE";"AV. SÁBATO RONSINI, 401 - 1 - CENTRO, SANTA BÁRBARA D'OESTE - SP, 13450-350, BRAZIL";"Sao Paulo";"Santa Barbara d'Oeste";;BR;25-10-002372;c2a07075-0208-42c3-b188-388b040e97e9;-22.759;-47.4172;"2025-10-30 19:30:00";;0;0;0;0;0;6244804;;;;2025-09-18
"League Challenge";"League Challenge Outubro 2025 - Loja do Kooper";2025-10-30;"LOJA DO KOOPER";"R. NANUQUE, 510 - VILA LEOPOLDINA, SÃO PAULO - SP, 05302-031, BRAZIL";"Sao Paulo";"Sao Paulo";;BR;25-10-007277;f20643bb-29da-4f0d-a627-d89af66698f0;-23.5312;-46.7256;"2025-10-30 19:30:00";;0;0;0;0;0;6243957;;;;2025-10-01
"League Challenge";"Exilio Card Games Challenge Outubro";2025-10-31;"EXILIO CARD GAMES";"R. MONSENHOR NUNO, 220 - SALA 06 - CENTRO, SUZANO - SP, 08674-035, BRAZIL";"Sao Paulo";Suzano;;BR;25-10-017121;8e76d217-861f-4ed2-b572-39b4622303c6;-23.537;-46.3113;"2025-10-31 19:00:00";;0;0;0;0;0;6242853;;;;2025-10-19
"League Challenge";"SUIKA TCG CHallenge";2025-11-01;"SUIKA GAMES & ANIMES";"71 ALAMEDA BARÃO DE LIMEIRA, SP 01202-001, BR";"Sao Paulo";"Sao Paulo";;BR;25-11-010980;32f61e20-b0f8-48fd-997b-5dab9ab89543;-23.5399;-46.6435;"2025-11-01 10:00:00";;0;0;0;0;0;6235057;;;;2025-10-20
"League Challenge";"Liga Challenge SpellCast";2025-11-01;"SPELLCAST GAMES";"AV. DR. TIMÓTEO PENTEADO, 2778 - SOBRELOJA - VILA SAO JUDAS TADEU, GUARULHOS - SP, 07061-000, BRAZIL";"Sao Paulo";Guarulhos;;BR;25-11-002360;7dee15d3-ba9f-4ac4-9966-4730fd98514c;-23.4513;-46.5507;"2025-11-01 14:00:00";;0;0;0;0;0;6242745;;;;2025-10-01
"League Challenge";"Piticas Plaza Sul Challenge TCG 11_2025";2025-11-02;"PITICAS_XP PLAZA SUL";"PRAÇA LEONOR KAUPA, 100 - JARDIM DA SAÚDE, SÃO PAULO - SP, 04151-900, BRAZIL";"Sao Paulo";"Sao Paulo";;BR;25-11-010219;6a706cf8-6a27-44f4-9044-067e21abf896;-23.6197;-46.6268;"2025-11-02 11:30:00";;0;0;0;0;0;2293017;;;;2025-10-19
"League Challenge";"League Challenge - Eternatus Card House";2025-11-04;"ETERNATUS CARD HOUSE";"121 R. CAROLINA LUCCA VAZ, SP 13303-519, BR";"Sao Paulo";Itu;;BR;25-11-001434;3a85e0c9-e446-4560-908d-e29305194ae3;-23.2763;-47.285;"2025-11-04 19:30:00";;0;0;0;0;0;6103218;;;;2025-09-25
"League Cup";"Piticas Plaza Sul CUP TCG OND_2025";2025-11-08;"PITICAS_XP PLAZA SUL";"PRAÇA LEONOR KAUPA, 100 - JARDIM DA SAÚDE, SÃO PAULO - SP, 04151-900, BRAZIL";"Sao Paulo";"Sao Paulo";;BR;25-11-010223;0af6653b-532c-491c-a9d4-f6aef25dfd2d;-23.6197;-46.6268;"2025-11-08 11:00:00";;0;0;0;0;0;2293017;;;;2025-10-19
"League Cup";"Mineral Games League CUP";2025-11-08;"MINERAL GAMES";"40 R. JOSÉ DE OLIVEIRA GOMES, SP 08561-300, BR";"Sao Paulo";Poa;;BR;25-11-009657;1239346b-d7d6-40c9-be3a-3b7e8996b45f;-23.5258;-46.3429;"2025-11-08 11:00:00";;0;0;0;0;0;6241449;;;;2025-10-17
"League Cup";"League Cup - Deckmaster Games";2025-11-08;"DECKMASTER GAMES";"1617 R. BERNARDINO DE CAMPOS, SP 14020-093, BR";"Sao Paulo";"Ribeirao Preto";;BR;25-11-010936;6ca9763f-bab7-4dc2-81d6-967d855e286e;-21.189;-47.8035;"2025-11-08 10:00:00";;0;0;0;0;0;2583202;;;;2025-10-20
"League Challenge";"dg challenge";2025-11-08;DG;"90 R. FLORIANO PEIXOTO RUA FLORIANO PEIXOTO, 90 - CENTRO, SP 14870-370, BR";"Sao Paulo";Jaboticabal;;BR;25-11-010105;9fc56855-fc99-4a90-bbd1-54d5eeda6bb2;-21.2618;-48.3156;"2025-11-08 09:00:00";;0;0;0;0;0;2353031;;;;2025-10-19
"League Challenge";"2° LEAGUE CHALLENGE POKÉMON TCG - Patinhas Geek";2025-11-08;"PATINHAS GEEK";"AV. PROF. CHICO SANTOS - ITAGUÁ, UBATUBA - SP, 11689-010, BRAZIL";"Sao Paulo";Ubatuba;;BR;25-11-011913;d5535ef2-3bd9-4367-b592-35061faec5c5;-23.4487;-45.0719;"2025-11-08 13:00:00";;0;0;0;0;0;6244941;;;;2025-10-23
"League Challenge";"Desafio da Liga novembro 2025";2025-11-08;"LETRAS EM FESTA";"707 AV. DEZENOVE DE MAIO CENTRO, SP 11250-000, BR";"Sao Paulo";Bertioga;;BR;25-11-001104;dba02557-cc1f-4756-9eb3-cc7aca8c27a6;-23.832;-46.1351;"2025-11-08 15:00:00";;0;0;0;0;0;2413111;;;;2025-09-22
"League Challenge";"League Challange";2025-11-08;"LOJA FARAWAY";"60 AV. BERNARDINO DE CAMPOS CENTRO, SP 12600-200, BR";"Sao Paulo";Lorena;;BR;25-11-003864;f5e2736a-e7eb-401d-94ea-5b51dcbe54a0;-22.7302;-45.1232;"2025-11-08 02:30:00";;0;0;0;0;0;6239316;;;;2025-10-07
"League Challenge";"League Challenge TCG Nov Arena Geek 09.11.25";2025-11-09;"ARENA GEEK";"RUA DR. ARMANDO SALLES DE OLIVEIRA, 138 - BOQUEIRÃO, SANTOS - SP, 11050-070, BRAZIL";"Sao Paulo";Santos;;BR;25-11-011984;3182ed60-7090-4dd8-bc1e-4c365ddfffe7;-23.961;-46.3311;"2025-11-09 14:00:00";;0;0;0;0;0;6240797;;;;2025-10-24
"League Challenge";"Challenger Novembro - Esquenta LAIC";2025-11-09;"FLOW GAMES";"RUA DONA GENOVEVA D'ASCOLI, 17 - VILA PRUDENTE, SÃO PAULO - SP, 03132-070, BRAZIL";"Sao Paulo";"Sao Paulo";;BR;25-11-005451;3f542735-727e-4b80-b605-f2266f09dbfe;-23.5816;-46.5849;"2025-11-09 14:00:00";;0;0;0;0;0;6240671;;;;2025-10-08
"League Challenge";"Challenger Lendario  TCG 09-11-25";2025-11-09;"LENDÁRIO CARD GAMES";"AV. CELSO GARCIA, 4367 - TATUAPÉ, SÃO PAULO - SP, 03063-000, BRAZIL";"Sao Paulo";"Sao Paulo";;BR;25-11-002467;7b732543-442d-404c-be91-7bcefd87d9f3;-23.5354;-46.5703;"2025-11-09 14:00:00";;0;0;0;0;0;6245402;;;;2025-10-01
"League Challenge";"Desafios TCG O PORTAL GEEK STORE - NOV";2025-11-09;"O PORTAL GEEK STORE";"AV. ROLAND GARROS, 782 - JARDIM BRASIL, SÃO PAULO - SP, 02235-000, BRAZIL";"Sao Paulo";"Sao Paulo";;BR;25-11-002861;826c51e8-56f8-40dd-9c8c-5c1b0f5faaa8;-23.4801;-46.5801;"2025-11-09 12:00:00";;0;0;0;0;0;6244087;;;;2025-10-02
"League Challenge";"League Challenge 2026 - Novembro";2025-11-09;"BARDOS GAME STORE";"466 R. CEL. ERNESTO DE OLIVEIRA, SP 13870-249, BR";"Sao Paulo";"Sao Joao da Boa Vista";;BR;25-11-003602;95048ff6-5b55-4c0d-ae15-43ce59879d85;-21.9799;-46.7958;"2025-11-09 10:00:00";;0;0;0;0;0;6238556;;;;2025-10-07
"League Challenge";"CHALLENGE RESERVA";2025-11-09;"RESERVA GAME STORE";"R. FREI GASPAR, 626 - MOOCA, SÃO PAULO - SP, 03164-100, BRAZIL";"Sao Paulo";"Sao Paulo";;BR;25-11-009695;bd2932a2-4403-4dd3-8675-242b2b033598;-23.548;-46.6055;"2025-11-09 00:00:00";;0;0;0;0;0;6245113;;;;2025-10-17
"League Cup";"League Cup geek House Americana";2025-11-09;"GEEK COLLECTIONS HOUSE";"R. MAL. FLORIANO PEIXOTO, 87 - CENTRO, AMERICANA - SP, 13465-080, BRAZIL";"Sao Paulo";Americana;;BR;25-11-012276;d487ea43-9e32-44c3-b573-292d0559101a;-22.7447;-47.3277;"2025-11-09 10:00:00";;0;0;0;0;0;6237174;;;;2025-10-24
"League Cup";"Copa da Liga";2025-11-09;"E. E. PROFESSOR ARCHIMEDES BAVA";"R. WASHINGTON CURVELO DE AGUIAR, SP 11250-000, BR";"Sao Paulo";Bertioga;;BR;25-11-001103;d4dc2810-b43d-4cb4-84d2-eca03b845f2d;-23.832;-46.1351;"2025-11-09 10:00:00";;0;0;0;0;0;2413111;;;;2025-09-22
"League Challenge";"TCG LEAGUE CHALLENGE (NOVEMBRO) - POLAR JOGOS";2025-11-09;"POLAR JOGOS";"2013 ALAMEDA DOS NHAMBIQUARAS SUBSOLO - COLETIVO GEEK, SP 04090-013, BR";"Sao Paulo";"Sao Paulo";;BR;25-11-000378;e6c3a4ed-3bf0-447e-a0ce-a6600a71e3fd;-23.6147;-46.6663;"2025-11-09 11:00:00";;0;0;0;0;0;6233645;;;;2025-09-17
"League Cup";"League CUP";2025-11-09;AV.8;"AV. 8, 3 - 4 300 - JARDIM CLARET, RIO CLARO - SP, 13503-210, BRAZIL";"Sao Paulo";"Rio Claro";;BR;25-11-002876;e970d76d-c43f-413f-95d1-27cf0528b261;-22.4065;-47.5611;"2025-11-09 10:00:00";;0;0;0;0;0;6244045;;;;2025-10-02
"League Challenge";"LEAGUE CHALLENGE NOVEMBRO";2025-11-09;"RAYEARTH GAMES";"1612 AV. DEP. DANTE DELMANTO, SP 18608-393, BR";"Sao Paulo";Botucatu;;BR;25-11-005836;f28345fe-a743-4986-a543-80d01eb227aa;-22.8713;-48.4485;"2025-11-09 10:00:00";;0;0;0;0;0;6237633;;;;2025-10-08
"League Challenge";"LEAGUE CHALLENGE NOVEMBRO FLOW GEEKs";2025-11-11;"FLOW GEEK STORE";"ESTR. DOS ALVARENGAS, 2550 - ASSUNÇÃO, SÃO BERNARDO DO CAMPO - SP, 09850-550, BRAZIL";"Sao Paulo";"Sao Bernardo do Campo";;BR;25-11-000699;f444bc27-ec4a-4318-bbe1-4afd4bee98ef;-23.7278;-46.577;"2025-11-11 19:30:00";;0;0;0;0;0;6243409;;;;2025-09-18
"League Challenge";"League Challenge NW (Novembro/2025)";2025-11-12;"NEOWALKERS GEEKSTORE";"R. PASSO FUNDO, 87 - JARDIM SÃO JORGE, GUARULHOS - SP, 07111-210, BRAZIL";"Sao Paulo";Guarulhos;;BR;25-11-000413;77517d11-02ff-4081-b40f-66013b4fe07e;-23.4609;-46.5229;"2025-11-12 20:00:00";;0;0;0;0;0;6245128;;;;2025-09-17
"League Challenge";"League Challenge Legacy tcg 19_11_2025";2025-11-12;"LEGACY TCG";"R. MARIA JOSÉ, QUADRA 8 - VILA SANTA TEREZA, BAURU - SP, 17012-160, BRAZIL";"Sao Paulo";Bauru;;BR;25-11-000402;8bf79684-baa4-4a33-9d7e-4e5b24dace3d;-22.3311;-49.0631;"2025-11-12 19:30:00";;0;0;0;0;0;6238617;;;;2025-09-17
"League Challenge";"TCG League Challenge Novembro - Pimp my Deck";2025-11-12;"PIMP MY DECK";"AV. DR. CÂNDIDO MOTTA FILHO, 545 - 39 - JARDIM GUEDALA, SÃO PAULO - SP, 05351-000, BRAZIL";"Sao Paulo";"Sao Paulo";;BR;25-11-010861;bc1adc77-34cc-4039-b1f3-c858fd44d015;-23.5579;-46.7554;"2025-11-12 19:00:00";;0;0;0;0;0;6241502;;;;2025-10-20
"League Challenge";"League Challenge Novembro - Jackpot Jogos";2025-11-13;JACKPOTJOGOS;"1140 RUA DOM PEDRO II, SP 13560-235, BR";"Sao Paulo";"Sao Carlos";;BR;25-11-001655;424a8d09-b3bc-442c-b397-f8d49ce2e089;-22.0148;-47.8878;"2025-11-13 19:30:00";;0;0;0;0;0;6238838;;;;2025-09-25
"League Challenge";"Challenge de Novembro";2025-11-13;"A GUILDA COLECIONÁVEIS";"1008 R. BERNARDINO DE CAMPOS, SP 13419-100, BR";"Sao Paulo";Piracicaba;;BR;25-11-008243;5c7b35a1-deb7-4b2d-88b2-38ce2c5664ec;-22.7195;-47.6481;"2025-11-13 19:00:00";;0;0;0;0;0;672927;;;;2025-10-15
"League Challenge";"Artplay League Challenge 11.2025";2025-11-13;ARTPLAY;"45 R. ONZE DE AGOSTO 2º ANDAR, SP 18270-001, BR";"Sao Paulo";Tatui;;BR;25-11-001508;afe8c618-39e3-49c7-961c-49207b7e5b92;-23.3474;-47.8471;"2025-11-13 19:00:00";;0;0;0;0;0;6239050;;;;2025-09-25
"League Challenge";"Challenge X1 Arena";2025-11-14;"X1 - ARENA";"R. QUINZE DE NOVEMBRO, 1071 - CENTRO, INDAIATUBA - SP, 13330-070, BRAZIL";"Sao Paulo";Indaiatuba;;BR;25-11-001589;abbc1b03-d2b1-4f7c-a58f-f6e39083b0e4;-23.0845;-47.2143;"2025-11-14 19:30:00";;0;0;0;0;0;6241564;;;;2025-09-25
"League Challenge";"League Challenge Novembro - Bird Games - 28/11";2025-11-15;"BIRD GAMES";"RUA CARDEAL ARCOVERDE, 1595 - 1° ANDAR - PINHEIROS, SÃO PAULO - SP, 05407-002, BRAZIL";"Sao Paulo";"Sao Paulo";;BR;25-11-001052;06f7b695-4a87-4c7d-a8eb-140f540723ae;-23.5609;-46.6869;"2025-11-15 11:00:00";;0;0;0;0;0;6244112;;;;2025-09-22
"League Cup";"CUP Barão Geek House";2025-11-15;"BARÃO GEEK HOUSE";"RUA GERMANO CASELLATTO, 44 - JARDIM SANTA GENEBRA II (BARAO GERALDO), CAMPINAS - SP, 13084-776, BRAZ";"Sao Paulo";Campinas;;BR;25-11-002828;14471b0e-7be5-4427-a292-8f108c5938b8;-22.83;-47.0774;"2025-11-15 10:00:00";;0;0;0;0;0;6242006;;;;2025-10-02
"League Cup";"Pokemon Imperium Play! CUP Novembro";2025-11-15;"IMPEIRUM TCG";"R. PREF. LESSA, 456-506 - CENTRO, ESPÍRITO SANTO DO PINHAL - SP, 13990-000, BRAZIL";"Sao Paulo";"Espirito Santo do Pinhal";;BR;25-11-001337;3190c6c0-8bd1-4d30-8017-1796fd129022;-22.1995;-46.7474;"2025-11-15 10:00:00";;0;0;0;0;0;6242142;;;;2025-09-23
"League Challenge";"TCG Challenge de Novembro Freak Games";2025-11-15;"FREAK GAMES";"R. ALFREDO PUJOL, 545 - LOJA 1 - SANTANA, SÃO PAULO - SP, 02017-000, BRAZIL";"Sao Paulo";"Sao Paulo";;BR;25-11-009385;4ad53d7f-735f-4944-b259-e5e31d70520f;-23.5003;-46.6313;"2025-11-15 13:00:00";;0;0;0;0;0;6242651;;;;2025-10-17
"League Challenge";"TCG League Challenge Novembro Kinoene Cards";2025-11-15;"KINOENE CARDS";"53 TV. MAJ. CESAR LEITE, SP 12245-800, BR";"Sao Paulo";"Sao Jose dos Campos";;BR;25-11-000497;76871a02-9627-46cf-8cea-058eef334f72;-23.1897;-45.8864;"2025-11-15 11:00:00";;0;0;0;0;0;6239390;;;;2025-09-18
"League Challenge";"ChallengUSA - NOVEMBRO";2025-11-15;"USA TRENDIES";"TV. DR. RODRIGO ANTÔNIO, 25 - VILA ALPINA, SANTO ANDRÉ - SP, 09090-750, BRAZIL";"Sao Paulo";"Santo Andre";;BR;25-11-003981;a30673a7-1296-4f94-b07f-1e4ee44403d9;-23.6537;-46.5394;"2025-11-15 15:00:00";;0;0;0;0;0;6243697;;;;2025-10-07
"League Challenge";"Challenge Novembro na Panda Games BR";2025-11-15;"PANDA GAMES BR (NEW)";"43 RUA CORONEL LEME RUA CORONEL LEME, 43, SP 12900-340, BR";"Sao Paulo";"Braganca Paulista";;BR;25-11-000644;a7129653-a3af-4ac2-bdb3-a0707b0fc505;-22.9575;-46.5421;"2025-11-15 14:00:00";;0;0;0;0;0;6237649;;;;2025-09-18
"League Cup";"Dream UP League CUP Out-Dez";2025-11-15;"DREAM UP";"RUA LOEFGREN, 927 - VILA MARIANA, SÃO PAULO - SP, 04040-030, BRAZIL";"Sao Paulo";"Sao Paulo";;BR;25-11-001316;b0adb7e1-1ee7-459e-850d-17f72bc3d286;-23.5997;-46.6345;"2025-11-15 10:00:00";;0;0;0;0;0;6236778;;;;2025-09-23
"League Challenge";"TCG League Challenge November";2025-11-15;"DOMINIO NERD";"R. NOVE DE JULHO, 321 - BANZATO, MARÍLIA - SP, 17515-150, BRAZIL";"Sao Paulo";Marilia;;BR;25-11-000716;b575cc31-0ae7-4c9b-b1d7-b8024bde96df;-22.212;-49.9397;"2025-11-15 14:00:00";;0;0;0;0;0;6242625;;;;2025-09-18
"League Cup";"League Cup Novembro - Jackpot Jogos";2025-11-15;JACKPOTJOGOS;"1140 RUA DOM PEDRO II, SP 13560-235, BR";"Sao Paulo";"Sao Carlos";;BR;25-11-001657;d464f286-f9b2-45ba-b7e0-7f0864527458;-22.0148;-47.8878;"2025-11-15 10:00:00";;0;0;0;0;0;6238838;;;;2025-09-25
"League Cup";"League Cup - Bolovo Games #2";2025-11-15;"BOLOVO GAMES";"81 R. MACHADO DE ASSIS, SP 11050-060, BR";"Sao Paulo";Santos;;BR;25-11-000886;d7b637a5-9c3d-48e7-9137-5b298437dcb9;-23.9631;-46.3241;"2025-11-15 13:30:00";;0;0;0;0;0;6237906;;;;2025-09-19
"League Challenge";"League Challenge (Novembro)";2025-11-15;"SALVAIA STORE";"R. CONSELHEIRO FURTADO, 692 - SALA 4 - LIBERDADE, SÃO PAULO - SP, 01511-000, BRAZIL";"Sao Paulo";"Sao Paulo";;BR;25-11-009422;e6a0332d-c190-46ea-93e2-912db0e0c99f;-23.5591;-46.633;"2025-11-15 12:00:00";;0;0;0;0;0;6242920;;;;2025-10-17
"League Challenge";"Leangue Challenge";2025-11-16;AV.8;"AV. 8, 3 - 4 300 - JARDIM CLARET, RIO CLARO - SP, 13503-210, BRAZIL";"Sao Paulo";"Rio Claro";;BR;25-11-011126;0d0fc391-faac-465a-94cc-03e7c7bedd3f;-22.4065;-47.5611;"2025-11-16 14:00:00";;0;0;0;0;0;6244045;;;;2025-10-22
"League Cup";"League CUP OUT-DEZ 25";2025-11-16;"PLAYER'S STOP";"157 R. SÍLVIO BARBOSA RUA SÍLVIO BARBOSA, 157, SP 07111-010, BR";"Sao Paulo";Guarulhos;;BR;25-11-005815;109b2f2d-6fb7-4555-a89f-90fdc5146c92;-23.466;-46.5227;"2025-11-16 10:00:00";;0;0;0;0;0;6233341;;;;2025-10-08
"League Challenge";"Liga Challenger GRADD";2025-11-16;"GRADD CARDS";"AV. ANDRÔMEDA, 2949 - JARDIM SATÉLITE, SÃO JOSÉ DOS CAMPOS - SP, 12233-000, BRAZIL";"Sao Paulo";"Sao Jose dos Campos";;BR;25-11-011099;20d19842-3cbe-4b7e-b9e9-fd6c40f11fb8;-23.2387;-45.8847;"2025-11-16 15:00:00";;0;0;0;0;0;6244176;;;;2025-10-22
"League Cup";"Liga Cup Legacy tcg _10_2025";2025-11-16;"LEGACY TCG";"R. MARIA JOSÉ, QUADRA 8 - VILA SANTA TEREZA, BAURU - SP, 17012-160, BRAZIL";"Sao Paulo";Bauru;;BR;25-10-002184;3ed68f30-430c-4edb-92f0-72d953a61330;-22.3311;-49.0631;"2025-11-16 10:00:00";;0;0;0;0;0;6238617;;;;2025-09-17
"League Cup";"League Cup Oct - Dez  - Meruru Liberdade";2025-11-16;"MERURU LIBERDADE";"526 R. GALVÃO BUENO 526, SP 01506-000, BR";"Sao Paulo";"Sao Paulo";;BR;25-11-000703;653b2924-93c9-4ad0-8ffd-9dadf16e0d3c;-23.5603;-46.635;"2025-11-16 11:00:00";;0;0;0;0;0;6239043;;;;2025-09-18
"League Cup";"League CUP TCG Arena Geek Out.Dez 16.11.25";2025-11-16;"ARENA GEEK";"RUA DR. ARMANDO SALLES DE OLIVEIRA, 138 - BOQUEIRÃO, SANTOS - SP, 11050-070, BRAZIL";"Sao Paulo";Santos;;BR;25-11-011985;986d7730-f1ab-47cd-b6a7-88c2ad2f1e1d;-23.961;-46.3311;"2025-11-16 14:00:00";;0;0;0;0;0;6240797;;;;2025-10-24
"League Cup";"4º LEAGUE CUP - GRAND PRIMO";2025-11-16;PRIMOCARDS;"1374 AVENIDA PROF. HENRIQUE DA M. F. JR., SP 13660-136, BR";"Sao Paulo";"Porto Ferreira";;BR;25-11-002648;c6ab535f-064c-44a8-8705-745dbadbaa07;-21.8639;-47.4877;"2025-11-16 09:00:00";;0;0;0;0;0;6240856;;;;2025-10-01
"League Cup";"Cup da Guilda";2025-11-16;"A GUILDA COLECIONÁVEIS";"1008 R. BERNARDINO DE CAMPOS, SP 13419-100, BR";"Sao Paulo";Piracicaba;;BR;25-11-008240;ef92e410-b4d2-4fe6-ae2c-1c3cebad88c4;-22.7195;-47.6481;"2025-11-16 09:00:00";;0;0;0;0;0;672927;;;;2025-10-15
"League Challenge";"Chuck TCG - League Challenge Novembro 2025";2025-11-18;"CHUCK TCG";"R. NITERÓI, 78 - CENTRO, SÃO CAETANO DO SUL - SP, 09510-210, BRAZIL";"Sao Paulo";"Sao Caetano do Sul";;BR;25-11-000417;6ea88c76-1468-468d-bf04-bebd97ad11f3;-23.6147;-46.5704;"2025-11-18 19:30:00";;0;0;0;0;0;4233203;;;;2025-09-17
"League Challenge";"League Challenge Geek House";2025-11-19;"GEEK COLLECTIONS HOUSE";"R. MAL. FLORIANO PEIXOTO, 87 - CENTRO, AMERICANA - SP, 13465-080, BRAZIL";"Sao Paulo";Americana;;BR;25-11-012265;c69af5b7-a3a6-440b-a8f4-84d45c6cfae4;-22.7447;-47.3277;"2025-11-19 19:00:00";;0;0;0;0;0;6237174;;;;2025-10-24
"League Challenge";"XPLACE LEAGUE CHALLENGE - NOVEMBRO 20/11";2025-11-20;XPLACE;"32 R. JORDÂNIA, SP 03543-000, BR";"Sao Paulo";"Sao Paulo";;BR;25-11-003252;e6f069d2-6bbc-4f1d-9270-ef6027e8feb2;-23.5325;-46.5158;"2025-11-20 13:00:00";;0;0;0;0;0;6240069;;;;2025-10-03
"League Challenge";"Challenge Novembro";2025-11-20;"MUITO! COLECIONÁVEIS";"AV. BRASIL, 1456 - JARDIM GUANABARA, CAMPINAS - SP, 13073-030, BRAZIL";"Sao Paulo";Campinas;;BR;25-11-002749;f6a2da27-e368-4508-8ebb-099805c66ac1;-22.884;-47.0703;"2025-11-20 19:30:00";;0;0;0;0;0;6241555;;;;2025-10-02
"League Challenge";"League Challenge Novembro";2025-11-21;"CHQ JOGOS";"26 R. GALEÃO CARVALHAL JD BELA VISTA, SP 09041-400, BR";"Sao Paulo";"Santo Andre";;BR;25-11-007017;b0ea77e7-7c68-4ddb-b97c-509d5937e866;-23.6683;-46.538;"2025-11-21 19:45:00";;0;0;0;0;0;6242311;;;;2025-10-10
"League Challenge";"Desafio de Liga Novembro";2025-11-22;"BALAIO DE JOGOS";"AV. SÃO VICENTE, 5451 - JARDIM NOEMIA, FRANCA - SP, 14403-720, BRASIL - JARDIM NOEMIA, FRANCA - SP,";"Sao Paulo";Franca;;BR;25-11-002082;729795b5-38ea-40be-88f4-2fdee3e4f054;-20.5609;-47.3716;"2025-11-22 13:00:00";;0;0;0;0;0;6242229;;;;2025-09-28
"League Challenge";"League Challenge Caverna do Dragão Ed5";2025-11-22;"CAVERNA DO DRAGÃO";"R. GOIÁS, 79 - BOQUEIRÃO, SANTOS - SP, 11050-101, BRAZIL";"Sao Paulo";Santos;;BR;25-11-006347;839f3bb6-010e-4537-8cc3-e9efde7777dc;-23.9611;-46.3262;"2025-11-22 12:00:00";;0;0;0;0;0;6243036;;;;2025-10-10
"League Challenge";"Legue Challenge Alpha Jogos";2025-11-22;"ALPHA JOGOS";"R. IPIRANGA, 957 - SALA 5 - JARDIM SANTISTA, MOGI DAS CRUZES - SP, 08730-000, BRAZIL";"Sao Paulo";"Mogi das Cruzes";;BR;25-11-011189;8a3eead9-2e47-4461-a221-bb4f286f523d;-23.529;-46.1994;"2025-11-22 12:00:00";;0;0;0;0;0;6244649;;;;2025-10-22
"League Challenge";"League Challenge EpicVale";2025-11-22;"EPIC VALE";"AV. DR. ADEMAR DE BARROS, 322 - VILA IGUALDADE, SÃO JOSÉ DOS CAMPOS - SP, 12243-620, BRAZIL";"Sao Paulo";"Sao Jose dos Campos";;BR;25-11-002544;8d956a08-da80-4b10-b749-35be50732aec;-23.1949;-45.8911;"2025-11-22 11:30:00";;0;0;0;0;0;6242408;;;;2025-10-01
"League Challenge";"TCG League Challenge de Novembro Citadel";2025-11-25;CITADEL;"R. AMARAL GAMA, 102 - SANTANA, SÃO PAULO - SP, 02018-000, BRAZIL";"Sao Paulo";"Sao Paulo";;BR;25-11-009096;5c95912a-c7a1-41b3-aee7-681c67f0c559;-23.4995;-46.6263;"2025-11-25 20:00:00";;0;0;0;0;0;6240001;;;;2025-10-16
"League Challenge";"League Challenge nOV-25";2025-11-27;"PLAYER'S STOP";"157 R. SÍLVIO BARBOSA RUA SÍLVIO BARBOSA, 157, SP 07111-010, BR";"Sao Paulo";Guarulhos;;BR;25-11-005811;8759df84-9367-49fa-b92d-aef08668e381;-23.466;-46.5227;"2025-11-27 20:00:00";;0;0;0;0;0;6233341;;;;2025-10-08
"League Challenge";"League Challenge - Bazar de Bagdá (Novembro).";2025-11-28;"BAZAR DE BAGDA";"463 R. DR. GABRIEL PIZA, SP 02036-011, BR";"Sao Paulo";"Sao Paulo";;BR;25-11-000372;a519517f-7ebb-413a-84ec-6ae81fb87372;-23.502;-46.6216;"2025-11-28 20:00:00";;0;0;0;0;0;3493201;;;;2025-09-17
"League Cup";"TCG League Cup Out-Dez Citadel";2025-11-29;CITADEL;"R. AMARAL GAMA, 102 - SANTANA, SÃO PAULO - SP, 02018-000, BRAZIL";"Sao Paulo";"Sao Paulo";;BR;25-11-009098;0e3ae6ea-2386-4154-89a6-a07f129b9238;-23.4995;-46.6263;"2025-11-29 11:00:00";;0;0;0;0;0;6240001;;;;2025-10-16
"League Cup";"League Cup - Eternatus Card House";2025-11-29;"ETERNATUS CARD HOUSE";"121 R. CAROLINA LUCCA VAZ, SP 13303-519, BR";"Sao Paulo";Itu;;BR;25-11-001435;0e4b7ccf-d3de-49bf-a929-43accf8e6c96;-23.2763;-47.285;"2025-11-29 10:00:00";;0;0;0;0;0;6103218;;;;2025-09-25
"League Challenge";"Pokemon Imperium Play! League NOvembro";2025-11-29;"IMPEIRUM TCG";"R. PREF. LESSA, 456-506 - CENTRO, ESPÍRITO SANTO DO PINHAL - SP, 13990-000, BRAZIL";"Sao Paulo";"Espirito Santo do Pinhal";;BR;25-11-001338;27005518-7442-4add-8305-0be38314d06c;-22.1995;-46.7474;"2025-11-29 13:00:00";;0;0;0;0;0;6242142;;;;2025-09-23
"League Challenge";"TCG League Challenge Pandora Geek Novembro";2025-11-29;"PANDORA GEEK";"AV. ANDRÔMEDA, 1255 - 3 - JARDIM SATÉLITE, SÃO JOSÉ DOS CAMPOS - SP, 12230-000, BRAZIL";"Sao Paulo";"Sao Jose dos Campos";;BR;25-11-000498;4fecaa49-de02-4478-a6ab-d1b237fb1d64;-23.2241;-45.8863;"2025-11-29 14:00:00";;0;0;0;0;0;6239243;;;;2025-09-18
"League Challenge";"TCG League Challenge - Liga CCG";2025-11-29;"CITY CLASS GAMES";"80 R. INÁCIA OLÍMPIA DE MORÃES, SP 06296-110, BR";"Sao Paulo";"Sao Paulo";;BR;25-11-000642;50efe8ff-7a85-4343-9f53-4307c11a36ec;-23.5191;-46.7537;"2025-11-29 14:00:00";;0;0;0;0;0;6240181;;;;2025-09-18
"League Cup";"League Cup Salvaia (Oct-Dec)";2025-11-29;"SALVAIA STORE";"R. CONSELHEIRO FURTADO, 692 - SALA 4 - LIBERDADE, SÃO PAULO - SP, 01511-000, BRAZIL";"Sao Paulo";"Sao Paulo";;BR;25-11-010022;56cb1e87-fd6e-45e2-b4d6-bd4a13505cf2;-23.5591;-46.633;"2025-11-29 10:00:00";;0;0;0;0;0;6242920;;;;2025-10-19
"League Cup";"Pokémon Cup";2025-11-29;"MUITO! COLECIONÁVEIS";"AV. BRASIL, 1456 - JARDIM GUANABARA, CAMPINAS - SP, 13073-030, BRAZIL";"Sao Paulo";Campinas;;BR;25-11-005433;61d25994-9aec-451e-affe-2e64dfe9f4bc;-22.884;-47.0703;"2025-11-29 15:30:00";;0;0;0;0;0;6241555;;;;2025-10-08
"League Cup";"dg cup";2025-11-29;DG;"90 R. FLORIANO PEIXOTO RUA FLORIANO PEIXOTO, 90 - CENTRO, SP 14870-370, BR";"Sao Paulo";Jaboticabal;;BR;25-11-010106;95a52ccd-e107-48e2-8fd0-575d0117a337;-21.2618;-48.3156;"2025-11-29 09:00:00";;0;0;0;0;0;2353031;;;;2025-10-19
"League Cup";"TCG League Cup - Pimp my Deck - Out-Dez";2025-11-29;"PIMP MY DECK (LOJA NOVA)";"AV. DR. CÂNDIDO MOTTA FILHO, 545 - 39 - JARDIM GUEDALA, SÃO PAULO - SP, 05351-000, BRAZIL";"Sao Paulo";"Sao Paulo";;BR;25-11-009173;b6527cc5-2c99-4220-8d9d-ed07b761be78;-23.5579;-46.7554;"2025-11-29 10:00:00";;0;0;0;0;0;6241502;;;;2025-10-16
"League Challenge";"ESTUDIO VICK - DESAFIO DE LIGA - NOVEMBRO 2025";2025-11-29;"ESTÚDIO VICK";"R. CAMPOS SALES, 159 - CENTRO, TAMBAÚ - SP, 13710-000, BRAZIL";"Sao Paulo";Tambau;;BR;25-11-000343;cf944691-3db5-41b1-909b-a0e9a6f8fb5e;-21.7065;-47.2738;"2025-11-29 13:30:00";;0;0;0;0;0;6241561;;;;2025-09-17
"League Challenge";"CHALLENGE NOVEMBRO - PG-SP";2025-11-30;"PLAYGROUND GAMES";"CALÇADA DAS SAMAMBAIAS, 29 - ALPHAVILLE COMERCIAL, BARUERI - SP, 06453-029, BRAZIL";"Sao Paulo";Barueri;;BR;25-11-001739;2384a1e1-293f-403e-a093-371b6826fec7;-23.4961;-46.8512;"2025-11-30 14:00:00";;0;0;0;0;0;6193219;;;;2025-09-26
"League Cup";"Copa de Liga quarto trimestre";2025-11-30;"BALAIO DE JOGOS";"AV. SÃO VICENTE, 5451 - JARDIM NOEMIA, FRANCA - SP, 14403-720, BRASIL - JARDIM NOEMIA, FRANCA - SP,";"Sao Paulo";Franca;;BR;25-11-002084;23a97813-f8aa-4521-b945-5dbd8bdfd5a3;-20.5609;-47.3716;"2025-11-30 11:00:00";;0;0;0;0;0;6242229;;;;2025-09-28
"League Challenge";"Liga Challenge Gato Guerreiro - Novembro";2025-11-30;"GATO GUERREIRO BAR E JOGOS";"R. GEN. GLICÉRIO, 4152 - VILA REDENTORA, SÃO JOSÉ DO RIO PRETO - SP, 15015-400, BRAZIL";"Sao Paulo";"Sao Jose do Rio Preto";;BR;25-11-008509;3075d232-821f-463a-95ef-51935171eeab;-20.818;-49.3893;"2025-11-30 14:00:00";;0;0;0;0;0;6242152;;;;2025-10-15
"League Challenge";"League Challenge Pokemon Meruru Liberdade - Novembro";2025-11-30;"MERURU LIBERDADE";"526 R. GALVÃO BUENO 526, SP 01506-000, BR";"Sao Paulo";"Sao Paulo";;BR;25-11-000660;32ac5fc2-e9e3-413a-a688-67c41dd33e4a;-23.5603;-46.635;"2025-11-30 11:00:00";;0;0;0;0;0;6239043;;;;2025-09-18
"League Challenge";"Click Cards & Games - League Challenge";2025-11-30;"CLICK CARDS & GAMES";"20 PRAÇA JOÃO PESSOA ANDAR 01, SALA 01, SP 08674-040, BR";"Sao Paulo";Suzano;;BR;25-11-011790;39cd742a-a0a8-4169-b49c-668f219cc46a;-23.5354;-46.3097;"2025-11-30 14:00:00";;0;0;0;0;0;6240565;;;;2025-10-24
"League Cup";"LEAGUE CUP - MEGA EVOLUÇÃO";2025-11-30;"RAYEARTH GAMES";"1612 AV. DEP. DANTE DELMANTO, SP 18608-393, BR";"Sao Paulo";Botucatu;;BR;25-11-005837;49e280cc-2e12-44ec-9ff9-6ab1517c78e4;-22.8713;-48.4485;"2025-11-30 10:00:00";;0;0;0;0;0;6237633;;;;2025-10-08
"League Cup";"LEAGUE CUP MAIN DECK";2025-11-30;"MAIN DECK";"R. GALVÃO BUENO, 714 - 2º ANDAR - LIBERDADE, SÃO PAULO - SP, 01506-000, BRAZIL";"Sao Paulo";"Sao Paulo";;BR;25-11-008845;52b57ef3-f6cf-414d-9761-5e65bd5e4cdf;-23.562;-46.6349;"2025-11-30 10:00:00";;0;0;0;0;0;6243756;;;;2025-10-16
"League Challenge";"Epic League Challenge";2025-11-30;"EPIC GAME SÃO PAULO";"R. DA GLÓRIA, 117 - LIBERDADE, SÃO PAULO - SP, 01510-001, BRAZIL";"Sao Paulo";"Sao Paulo";;BR;25-11-000488;9b7f06ce-8e27-4839-816d-0ab01de14840;-23.5542;-46.634;"2025-11-30 11:00:00";;0;0;0;0;0;4083208;;;;2025-09-18
"League Challenge";"League Challenge - Eternatus Card House";2025-12-02;"ETERNATUS CARD HOUSE";"121 R. CAROLINA LUCCA VAZ, SP 13303-519, BR";"Sao Paulo";Itu;;BR;25-12-001177;4b3bd17f-bd20-4985-9582-1fe3b8e7145b;-23.2763;-47.285;"2025-12-02 19:30:00";;0;0;0;0;0;6103218;;;;2025-09-25
"League Challenge";"Chuck TCG - League Challenge Dezembro 2025";2025-12-04;"CHUCK TCG";"R. NITERÓI, 78 - CENTRO, SÃO CAETANO DO SUL - SP, 09510-210, BRAZIL";"Sao Paulo";"Sao Caetano do Sul";;BR;25-12-000350;6a42e1c8-9fff-4647-b0c9-cde7a707dde3;-23.6147;-46.5704;"2025-12-04 19:30:00";;0;0;0;0;0;4233203;;;;2025-09-17
"League Challenge";"Piticas Plaza Sul Challenge TCG 12_2025";2025-12-06;"PITICAS_XP PLAZA SUL";"PRAÇA LEONOR KAUPA, 100 - JARDIM DA SAÚDE, SÃO PAULO - SP, 04151-900, BRAZIL";"Sao Paulo";"Sao Paulo";;BR;25-12-003311;0dda9256-5d79-49ff-9876-61f2c6d901c0;-23.6197;-46.6268;"2025-12-06 11:00:00";;0;0;0;0;0;2293017;;;;2025-10-19
"League Challenge";"TCG League Challenge Dezembro Kinoene Cards";2025-12-06;"KINOENE CARDS";"53 TV. MAJ. CESAR LEITE, SP 12245-800, BR";"Sao Paulo";"Sao Jose dos Campos";;BR;25-12-000413;4294c194-9ed4-450a-9793-3c50757269b7;-23.1897;-45.8864;"2025-12-06 11:00:00";;0;0;0;0;0;6239390;;;;2025-09-18
"League Cup";"LEAGU CUP - XPLACE";2025-12-06;XPLACE;"32 R. JORDÂNIA, SP 03543-000, BR";"Sao Paulo";"Sao Paulo";;BR;25-12-002256;7ed7d3f1-d4cc-47b1-97ad-381c6a2ffcd5;-23.5325;-46.5158;"2025-12-06 11:00:00";;0;0;0;0;0;6240069;;;;2025-10-03
"League Cup";"TABERNA GAMES - POKEMON";2025-12-06;"TABERNA GAMES - LOJA";"R. RUI BARBOSA, 351 - RIBEIRO, LINS - SP, 16401-040, BRAZIL";"Sao Paulo";Lins;;BR;25-10-017743;7f0d9437-6c42-47bf-808f-b31b0e2c4cde;-21.6698;-49.7453;"2025-12-06 14:00:00";;0;0;0;0;0;6243561;;;;2025-10-20
"League Cup";"Coliseu Cup 15-11-2025";2025-12-06;"COLISEU TCG";"R. SÃO JOSÉ, 16 - VILA PARAISO, MOGI GUAÇU - SP, 13844-000, BRAZIL";"Sao Paulo";"Mogi Guacu";;BR;25-11-002010;9b4c1307-ea3b-4d06-bb1a-467c0ba4dac8;-22.3742;-46.9416;"2025-12-06 10:00:00";;0;0;0;0;0;6241985;;;;2025-09-28
"League Challenge";"Liga Challenge SpellCast";2025-12-06;"SPELLCAST GAMES";"AV. DR. TIMÓTEO PENTEADO, 2778 - SOBRELOJA - VILA SAO JUDAS TADEU, GUARULHOS - SP, 07061-000, BRAZIL";"Sao Paulo";Guarulhos;;BR;25-12-001863;b5c6f223-eb82-4335-bc3f-53f9b9d037b5;-23.4513;-46.5507;"2025-12-06 14:00:00";;0;0;0;0;0;6242745;;;;2025-10-01
"League Cup";"League Cup";2025-12-06;"LOJA FARAWAY";"60 AV. BERNARDINO DE CAMPOS CENTRO, SP 12600-200, BR";"Sao Paulo";Lorena;;BR;25-12-002314;ca3ab047-3653-47d4-aca9-d96b570cdf2d;-22.7302;-45.1232;"2025-12-06 02:30:00";;0;0;0;0;0;6239316;;;;2025-10-07
"League Challenge";"TCG LEAGUE CHALLENGE (DEZEMBRO) - POLAR JOGOS";2025-12-06;"POLAR JOGOS";"2013 ALAMEDA DOS NHAMBIQUARAS SUBSOLO - COLETIVO GEEK, SP 04090-013, BR";"Sao Paulo";"Sao Paulo";;BR;25-12-000318;e70e8bb2-a5b1-41bd-8f10-165ce6dd74a4;-23.6147;-46.6663;"2025-12-06 11:00:00";;0;0;0;0;0;6233645;;;;2025-09-17
"League Cup";"Epic League Cup";2025-12-07;"EPIC GAME SÃO PAULO";"R. DA GLÓRIA, 117 - LIBERDADE, SÃO PAULO - SP, 01510-001, BRAZIL";"Sao Paulo";"Sao Paulo";;BR;25-12-000405;0473084b-528c-4ffe-b79f-afc032bd2295;-23.5542;-46.634;"2025-12-07 11:00:00";;0;0;0;0;0;4083208;;;;2025-09-18
"League Challenge";"League Challenge TCG Dez Arena Geek 07.12.25";2025-12-07;"ARENA GEEK";"RUA DR. ARMANDO SALLES DE OLIVEIRA, 138 - BOQUEIRÃO, SANTOS - SP, 11050-070, BRAZIL";"Sao Paulo";Santos;;BR;25-12-003529;1813697c-81ea-4cd6-9670-34fac40e86e2;-23.961;-46.3311;"2025-12-07 14:00:00";;0;0;0;0;0;6240797;;;;2025-10-24
"League Challenge";"Desafios TCG O PORTAL GEEK STORE - DEZ";2025-12-07;"O PORTAL GEEK STORE";"AV. ROLAND GARROS, 782 - JARDIM BRASIL, SÃO PAULO - SP, 02235-000, BRAZIL";"Sao Paulo";"Sao Paulo";;BR;25-12-002189;1eab3de7-a650-418d-a376-66a8971f5884;-23.4801;-46.5801;"2025-12-07 12:00:00";;0;0;0;0;0;6244087;;;;2025-10-02
"League Challenge";"CHALLENGE DEZEMBRO - PG-SP";2025-12-07;"PLAYGROUND GAMES";"CALÇADA DAS SAMAMBAIAS, 29 - ALPHAVILLE COMERCIAL, BARUERI - SP, 06453-029, BRAZIL";"Sao Paulo";Barueri;;BR;25-12-001423;3224343d-02a7-4bee-b028-2d22c4a55528;-23.4961;-46.8512;"2025-12-07 14:00:00";;0;0;0;0;0;6193219;;;;2025-09-26
"League Cup";"League CUP 2026 - Out/Dez";2025-12-07;"BARDOS GAME STORE";"466 R. CEL. ERNESTO DE OLIVEIRA, SP 13870-249, BR";"Sao Paulo";"Sao Joao da Boa Vista";;BR;25-12-002288;51bd9559-aefa-4502-8868-e92341592075;-21.9799;-46.7958;"2025-12-07 10:00:00";;0;0;0;0;0;6238556;;;;2025-10-07
"League Cup";"League Cup Gato Guerreiro - Dezembro";2025-12-07;"GATO GUERREIRO BAR E JOGOS";"R. GEN. GLICÉRIO, 4152 - VILA REDENTORA, SÃO JOSÉ DO RIO PRETO - SP, 15015-400, BRAZIL";"Sao Paulo";"Sao Jose do Rio Preto";;BR;25-12-003069;56afd6ea-6cdd-434c-a4e0-36e904335c6a;-20.818;-49.3893;"2025-12-07 10:00:00";;0;0;0;0;0;6242152;;;;2025-10-15
"League Cup";"LEAGUE CUP NOVEMBRO FLOW GEEKS";2025-12-07;"FLOW GEEK STORE";"ESTR. DOS ALVARENGAS, 2550 - ASSUNÇÃO, SÃO BERNARDO DO CAMPO - SP, 09850-550, BRAZIL";"Sao Paulo";"Sao Bernardo do Campo";;BR;25-11-000706;5fc8814f-a0ac-42ee-a708-2a4f1c1a1f00;-23.7278;-46.577;"2025-12-07 14:00:00";;0;0;0;0;0;6243409;;;;2025-09-18
"League Challenge";"LEAGUE CHALLENGE - DEZEMBRO";2025-12-07;"RAYEARTH GAMES";"1612 AV. DEP. DANTE DELMANTO, SP 18608-393, BR";"Sao Paulo";Botucatu;;BR;25-12-002690;674bee61-a599-43a4-b586-2be124c55740;-22.8713;-48.4485;"2025-12-07 10:00:00";;0;0;0;0;0;6237633;;;;2025-10-08
"League Challenge";"Challenger Lendario TCG 07-12-25";2025-12-07;"LENDÁRIO CARD GAMES";"AV. CELSO GARCIA, 4367 - TATUAPÉ, SÃO PAULO - SP, 03063-000, BRAZIL";"Sao Paulo";"Sao Paulo";;BR;25-12-001930;7e986c38-e0c5-4f7d-854f-833d4f7188dc;-23.5354;-46.5703;"2025-12-07 14:00:00";;0;0;0;0;0;6245402;;;;2025-10-01
"League Challenge";"Liga Challenger GRADD";2025-12-07;"GRADD CARDS";"AV. ANDRÔMEDA, 2949 - JARDIM SATÉLITE, SÃO JOSÉ DOS CAMPOS - SP, 12233-000, BRAZIL";"Sao Paulo";"Sao Jose dos Campos";;BR;25-12-003440;87c87592-00c6-495d-9e91-e5167fa9472d;-23.2387;-45.8847;"2025-12-07 15:00:00";;0;0;0;0;0;6244176;;;;2025-10-22
"League Cup";"league Cup December";2025-12-07;"LOJA DO TOGURO";"AV. DOM PEDRO II, 359 - 1 - JARDIM, SANTO ANDRÉ - SP, 09090-521, BRAZIL";"Sao Paulo";"Santo Andre";;BR;25-12-002027;c1adceb4-67a1-411a-b299-e6dff918c445;-23.6832;-46.5085;"2025-12-07 15:00:00";;0;0;0;0;0;6242421;;;;2025-10-01
"League Cup";"TCG League Cup Versus Game Club";2025-12-07;"VERSUS GAME CLUB";"AV. JUSCELINO KUBITSCHEK DE OLIVEIRA, 441 - JARDIM DOS CISNES, SÃO BENTO DO SAPUCAÍ - SP, 12490-000,";"Sao Paulo";"Sao Bento do Sapucai";;BR;25-12-001637;eb1e0c91-57dd-4c0c-ac7e-deba21e0478c;-22.6859;-45.731;"2025-12-07 10:00:00";;0;0;0;0;0;6242789;;;;2025-09-28
"League Challenge";"LEAGUE CHALLENGE DEZEMBRO FLOW GEEKs";2025-12-09;"FLOW GEEK STORE";"ESTR. DOS ALVARENGAS, 2550 - ASSUNÇÃO, SÃO BERNARDO DO CAMPO - SP, 09850-550, BRAZIL";"Sao Paulo";"Sao Bernardo do Campo";;BR;25-12-000606;63a18d84-d5cb-43fc-872e-b1933308e072;-23.7278;-46.577;"2025-12-09 19:30:00";;0;0;0;0;0;6243409;;;;2025-09-18
"League Challenge";"League Challenge NW (Dezembro/2025)";2025-12-10;"NEOWALKERS GEEKSTORE";"R. PASSO FUNDO, 87 - JARDIM SÃO JORGE, GUARULHOS - SP, 07111-210, BRAZIL";"Sao Paulo";Guarulhos;;BR;25-12-000347;131c7ed0-cf21-4358-a264-6ebaad915007;-23.4609;-46.5229;"2025-12-10 20:00:00";;0;0;0;0;0;6245128;;;;2025-09-17
"League Challenge";"Challenge de Dezembro";2025-12-11;"A GUILDA COLECIONÁVEIS";"1008 R. BERNARDINO DE CAMPOS, SP 13419-100, BR";"Sao Paulo";Piracicaba;;BR;25-12-003035;07a2d658-acde-4c14-ba13-ac030ff1faf8;-22.7195;-47.6481;"2025-12-11 19:00:00";;0;0;0;0;0;672927;;;;2025-10-15
"League Challenge";"Artplay League Challenge 12.2025";2025-12-11;ARTPLAY;"45 R. ONZE DE AGOSTO 2º ANDAR, SP 18270-001, BR";"Sao Paulo";Tatui;;BR;25-12-001243;17a0f457-06a8-41f3-957a-4be85c614f5b;-23.3474;-47.8471;"2025-12-11 19:00:00";;0;0;0;0;0;6239050;;;;2025-09-25
"League Challenge";"League Challenge Dezembro - Jackpot Jogos";2025-12-11;JACKPOTJOGOS;"1140 RUA DOM PEDRO II, SP 13560-235, BR";"Sao Paulo";"Sao Carlos";;BR;25-12-001366;58cf9d74-c4b6-43dc-aa93-7aa35573355c;-22.0148;-47.8878;"2025-12-11 19:30:00";;0;0;0;0;0;6238838;;;;2025-09-25
"League Challenge";"League Challenge DEZ-25";2025-12-11;"PLAYER'S STOP";"157 R. SÍLVIO BARBOSA RUA SÍLVIO BARBOSA, 157, SP 07111-010, BR";"Sao Paulo";Guarulhos;;BR;25-12-002685;a5998948-89c6-402b-b4e2-c608e000db2a;-23.466;-46.5227;"2025-12-11 20:00:00";;0;0;0;0;0;6233341;;;;2025-10-08
"League Challenge";"League Challenge Dezembro - Bird Games - 12/12";2025-12-12;"BIRD GAMES";"RUA CARDEAL ARCOVERDE, 1595 - 1° ANDAR - PINHEIROS, SÃO PAULO - SP, 05407-002, BRAZIL";"Sao Paulo";"Sao Paulo";;BR;25-12-000882;7ce112dd-a078-463d-8670-a75561fe332e;-23.5609;-46.6869;"2025-12-12 19:30:00";;0;0;0;0;0;6244112;;;;2025-09-22
"League Challenge";"Challenge X1 Arena";2025-12-12;"X1 - ARENA";"R. QUINZE DE NOVEMBRO, 1071 - CENTRO, INDAIATUBA - SP, 13330-070, BRAZIL";"Sao Paulo";Indaiatuba;;BR;25-12-001321;d8aa2c9c-c1d0-42a4-b8ed-5d30918f37b8;-23.0845;-47.2143;"2025-12-12 19:30:00";;0;0;0;0;0;6241564;;;;2025-09-25
"League Challenge";Pokéween;2025-12-13;"FLOW GAMES";"RUA DONA GENOVEVA D'ASCOLI, 17 - VILA PRUDENTE, SÃO PAULO - SP, 03132-070, BRAZIL";"Sao Paulo";"Sao Paulo";;BR;25-12-002596;28743336-139e-4351-a20e-6def372d7e8b;-23.5816;-46.5849;"2025-12-13 14:00:00";;0;0;0;0;0;6240671;;;;2025-10-08
"League Cup";"TCG League Cup - Liga CCG";2025-12-13;"CITY CLASS GAMES";"80 R. INÁCIA OLÍMPIA DE MORÃES, SP 06296-110, BR";"Sao Paulo";"Sao Paulo";;BR;25-12-000538;2a9c16fd-e6c1-4ca3-ab46-bec1223a4b59;-23.5191;-46.7537;"2025-12-13 14:00:00";;0;0;0;0;0;6240181;;;;2025-09-18
"League Challenge";"TCG League Challenge December";2025-12-13;"DOMINIO NERD";"R. NOVE DE JULHO, 321 - BANZATO, MARÍLIA - SP, 17515-150, BRAZIL";"Sao Paulo";Marilia;;BR;25-12-000622;3ca954fc-e27a-47a9-b94f-5f8298fd43e5;-22.212;-49.9397;"2025-12-13 14:00:00";;0;0;0;0;0;6242625;;;;2025-09-18
"League Challenge";"League Challenge EpicVale";2025-12-13;"EPIC VALE";"AV. DR. ADEMAR DE BARROS, 322 - VILA IGUALDADE, SÃO JOSÉ DOS CAMPOS - SP, 12243-620, BRAZIL";"Sao Paulo";"Sao Jose dos Campos";;BR;25-12-001970;49ebccdd-9a66-4291-88e1-aef19c1defa8;-23.1949;-45.8911;"2025-12-13 11:30:00";;0;0;0;0;0;6242408;;;;2025-10-01
"League Challenge";"Desafio de liga de Dezembro";2025-12-13;"BALAIO DE JOGOS";"AV. SÃO VICENTE, 5451 - JARDIM NOEMIA, FRANCA - SP, 14403-720, BRASIL - JARDIM NOEMIA, FRANCA - SP,";"Sao Paulo";Franca;;BR;25-12-001645;4c940ec3-445e-4e86-a979-141d888b683e;-20.5609;-47.3716;"2025-12-13 13:00:00";;0;0;0;0;0;6242229;;;;2025-09-28
"League Challenge";"ChallengUSA - DEZEMBRO";2025-12-13;"USA TRENDIES";"TV. DR. RODRIGO ANTÔNIO, 25 - VILA ALPINA, SANTO ANDRÉ - SP, 09090-750, BRAZIL";"Sao Paulo";"Santo Andre";;BR;25-12-002328;5e02151a-8b2b-4b29-945f-5476687d5d9c;-23.6537;-46.5394;"2025-12-13 15:00:00";;0;0;0;0;0;6243697;;;;2025-10-07
"League Challenge";"League Challange";2025-12-13;"LOJA FARAWAY";"60 AV. BERNARDINO DE CAMPOS CENTRO, SP 12600-200, BR";"Sao Paulo";Lorena;;BR;25-12-002315;69c4269d-cfee-4252-8f78-823d4fdd70f1;-22.7302;-45.1232;"2025-12-13 00:00:00";;0;0;0;0;0;6239316;;;;2025-10-07
"League Challenge";"Leangue Challenge - Dezembro";2025-12-13;AV.8;"AV. 8, 3 - 4 300 - JARDIM CLARET, RIO CLARO - SP, 13503-210, BRAZIL";"Sao Paulo";"Rio Claro";;BR;25-12-003445;6b405140-cfc7-474d-9b3a-cf6f871882ce;-22.4065;-47.5611;"2025-12-13 14:00:00";;0;0;0;0;0;6244045;;;;2025-10-22
"League Challenge";"Desafio da Liga Dezembro 2025";2025-12-13;"LETRAS EM FESTA";"707 AV. DEZENOVE DE MAIO CENTRO, SP 11250-000, BR";"Sao Paulo";Bertioga;;BR;25-12-000916;8ac62c20-b71a-45f3-97c6-feb0f1a385f5;-23.832;-46.1351;"2025-12-13 13:00:00";;0;0;0;0;0;2413111;;;;2025-09-22
"League Challenge";"TCG Challenge de Dezembro Freak Games";2025-12-13;"FREAK GAMES";"R. ALFREDO PUJOL, 545 - LOJA 1 - SANTANA, SÃO PAULO - SP, 02017-000, BRAZIL";"Sao Paulo";"Sao Paulo";;BR;25-12-003199;8dd91c30-b527-4786-bf2b-ef6b2a6c93ab;-23.5003;-46.6313;"2025-12-13 13:00:00";;0;0;0;0;0;6242651;;;;2025-10-17
"League Challenge";"dg challenge";2025-12-13;DG;"90 R. FLORIANO PEIXOTO RUA FLORIANO PEIXOTO, 90 - CENTRO, SP 14870-370, BR";"Sao Paulo";Jaboticabal;;BR;25-12-003290;9cdc1be4-861f-473f-bd62-d5dbd349135b;-21.2618;-48.3156;"2025-12-13 09:00:00";;0;0;0;0;0;2353031;;;;2025-10-19
"League Challenge";"Challenge Dezembro na Panda Games BR";2025-12-13;"PANDA GAMES BR (NEW)";"43 RUA CORONEL LEME RUA CORONEL LEME, 43, SP 12900-340, BR";"Sao Paulo";"Braganca Paulista";;BR;25-12-000544;a2b044f4-727d-463a-8c68-343ca6371960;-22.9575;-46.5421;"2025-12-13 14:00:00";;0;0;0;0;0;6237649;;;;2025-09-18
"League Cup";"Artplay League Cup 12.2025";2025-12-13;ARTPLAY;"45 R. ONZE DE AGOSTO 2º ANDAR, SP 18270-001, BR";"Sao Paulo";Tatui;;BR;25-12-001244;a7c4e953-fc1f-41ca-b4e1-e2ca974b6886;-23.3474;-47.8471;"2025-12-13 10:00:00";;0;0;0;0;0;6239050;;;;2025-09-25
"League Challenge";"ESTUDIO VICK - DESAFIO DE LIGA - DEZEMBRO 2025";2025-12-13;"ESTÚDIO VICK";"R. CAMPOS SALES, 159 - CENTRO, TAMBAÚ - SP, 13710-000, BRAZIL";"Sao Paulo";Tambau;;BR;25-12-000285;f468c2cb-ec69-4447-8155-fd1ed59c1841;-21.7065;-47.2738;"2025-12-13 13:30:00";;0;0;0;0;0;6241561;;;;2025-09-17
"League Challenge";"League Challenge Gato Guerreiro - Dezembro";2025-12-14;"GATO GUERREIRO BAR E JOGOS";"R. GEN. GLICÉRIO, 4152 - VILA REDENTORA, SÃO JOSÉ DO RIO PRETO - SP, 15015-400, BRAZIL";"Sao Paulo";"Sao Jose do Rio Preto";;BR;25-12-003070;0f3034a5-def9-4a64-8670-570b1284d0d0;-20.818;-49.3893;"2025-12-14 14:00:00";;0;0;0;0;0;6242152;;;;2025-10-15
"League Cup";"ESTUDIO VICK - COPA DE LIGA";2025-12-14;"ESTÚDIO VICK";"R. CAMPOS SALES, 159 - CENTRO, TAMBAÚ - SP, 13710-000, BRAZIL";"Sao Paulo";Tambau;;BR;25-11-000349;2dee13d9-f0a0-4df3-ad36-a2bea9c8c033;-21.7065;-47.2738;"2025-12-14 10:00:00";;0;0;0;0;0;6241561;;;;2025-09-17
"League Challenge";"TCG League Challenge de Dezembro Citadel";2025-12-16;CITADEL;"R. AMARAL GAMA, 102 - SANTANA, SÃO PAULO - SP, 02018-000, BRAZIL";"Sao Paulo";"Sao Paulo";;BR;25-12-003163;d7a92ae7-bc40-40ac-9ed2-4dfe9762a1a6;-23.4995;-46.6263;"2025-12-16 20:00:00";;0;0;0;0;0;6240001;;;;2025-10-16
"League Challenge";"League Challenge Geek House";2025-12-17;"GEEK COLLECTIONS HOUSE";"R. MAL. FLORIANO PEIXOTO, 87 - CENTRO, AMERICANA - SP, 13465-080, BRAZIL";"Sao Paulo";Americana;;BR;25-12-003547;6b32c9b5-0984-4002-a779-f23f30b03041;-22.7447;-47.3277;"2025-12-17 19:00:00";;0;0;0;0;0;6237174;;;;2025-10-24
"League Challenge";"Challenge Dezembro";2025-12-18;"MUITO! COLECIONÁVEIS";"AV. BRASIL, 1456 - JARDIM GUANABARA, CAMPINAS - SP, 13073-030, BRAZIL";"Sao Paulo";Campinas;;BR;25-12-002111;80c68c36-d256-4194-861f-21bd90f6516f;-22.884;-47.0703;"2025-12-18 19:30:00";;0;0;0;0;0;6241555;;;;2025-10-02
"League Challenge";"League Challenge - Bazar de Bagdá (Dezembro).";2025-12-19;"BAZAR DE BAGDA";"463 R. DR. GABRIEL PIZA, SP 02036-011, BR";"Sao Paulo";"Sao Paulo";;BR;25-12-000319;6dbf7d6e-211d-4331-b4d7-fd7c983dcab6;-23.502;-46.6216;"2025-12-19 20:00:00";;0;0;0;0;0;3493201;;;;2025-09-17
"League Challenge";"TCG League Challenge - Liga CCG";2025-12-20;"CITY CLASS GAMES";"80 R. INÁCIA OLÍMPIA DE MORÃES, SP 06296-110, BR";"Sao Paulo";"Sao Paulo";;BR;25-12-000541;94e4d250-51a7-4d98-b412-be7ab5ca85df;-23.5191;-46.7537;"2025-12-20 14:00:00";;0;0;0;0;0;6240181;;;;2025-09-18
"League Challenge";"TCG League Challenge Pandora Geek Dezembro";2025-12-20;"PANDORA GEEK";"AV. ANDRÔMEDA, 1255 - 3 - JARDIM SATÉLITE, SÃO JOSÉ DOS CAMPOS - SP, 12230-000, BRAZIL";"Sao Paulo";"Sao Jose dos Campos";;BR;25-12-000414;9e687b35-fc9c-497e-9d36-5fc59414e49e;-23.2241;-45.8863;"2025-12-20 14:00:00";;0;0;0;0;0;6239243;;;;2025-09-18
"League Challenge";"League Challenge Caverna do Dragão Ed6";2025-12-20;"CAVERNA DO DRAGÃO";"R. GOIÁS, 79 - BOQUEIRÃO, SANTOS - SP, 11050-101, BRAZIL";"Sao Paulo";Santos;;BR;25-12-002808;ebbab72a-c662-48ac-868d-67a91dc42b23;-23.9611;-46.3262;"2025-12-20 12:00:00";;0;0;0;0;0;6243036;;;;2025-10-10
"League Challenge";"League Challenge Pokemon Meruru Liberdade - Dezembro";2025-12-21;"MERURU LIBERDADE";"526 R. GALVÃO BUENO 526, SP 01506-000, BR";"Sao Paulo";"Sao Paulo";;BR;25-12-000565;0c1ffe8f-8ec3-4d14-8181-5545ff0bc608;-23.5603;-46.635;"2025-12-21 11:00:00";;0;0;0;0;0;6239043;;;;2025-09-18
"League Cup";"TCG League Cup October - December";2025-12-21;"DOMINIO NERD";"R. NOVE DE JULHO, 321 - BANZATO, MARÍLIA - SP, 17515-150, BRAZIL";"Sao Paulo";Marilia;;BR;25-12-000623;4d78c75d-a957-49ff-8f9b-85278e7f8a92;-22.212;-49.9397;"2025-12-21 00:10:00";;0;0;0;0;0;6242625;;;;2025-09-18
"League Challenge";"League Challenge 2026 - Dezembro";2025-12-21;"BARDOS GAME STORE";"466 R. CEL. ERNESTO DE OLIVEIRA, SP 13870-249, BR";"Sao Paulo";"Sao Joao da Boa Vista";;BR;25-12-002287;a41eddd0-ab6d-4f07-8505-42b9908cf54b;-21.9799;-46.7958;"2025-12-21 10:00:00";;0;0;0;0;0;6238556;;;;2025-10-07
"League Challenge";"Epic League Challenge";2025-12-21;"EPIC GAME SÃO PAULO";"R. DA GLÓRIA, 117 - LIBERDADE, SÃO PAULO - SP, 01510-001, BRAZIL";"Sao Paulo";"Sao Paulo";;BR;25-12-000404;e04ccf42-148d-4053-b2c3-c62ee7c9a73e;-23.5542;-46.634;"2025-12-21 11:00:00";;0;0;0;0;0;4083208;;;;2025-09-18
"League Challenge";"XPLACE LEAGUE CHALLENGE - DEZEMBRO 27/12";2025-12-27;XPLACE;"32 R. JORDÂNIA, SP 03543-000, BR";"Sao Paulo";"Sao Paulo";;BR;25-12-002255;6a7a8dc6-54f2-4c33-b8af-7cdd2dfc06b8;-23.5325;-46.5158;"2025-12-27 13:00:00";;0;0;0;0;0;6240069;;;;2025-10-03
"League Challenge";"Pokemon Imperium Play! League Dezembro";2025-12-27;"IMPEIRUM TCG";"R. PREF. LESSA, 456-506 - CENTRO, ESPÍRITO SANTO DO PINHAL - SP, 13990-000, BRAZIL";"Sao Paulo";"Espirito Santo do Pinhal";;BR;25-12-001104;b6f8ac35-b8ec-4da1-aea7-6e9d32ec7eed;-22.1995;-46.7474;"2025-12-27 13:00:00";;0;0;0;0;0;6242142;;;;2025-09-23
