type;name;date;shop;street_adress;state;city;postal_code;country_code;pokemon_url;guid;latitude;longitude;when;status;totalPlayers;TCaccounts;juniors;seniors;masters;league;category;tournament_date;tournament_completed;date_added
"League Challenge";"League Challenge - Bazar de Bagdá (Outubro).";2025-10-24;"BAZAR DE BAGDA";"463 R. DR. GABRIEL PIZA, SP 02036-011, BR";"Sao Paulo";"Sao Paulo";;BR;25-10-002129;2baca3d2-bab1-41bf-8b44-4eaaa5853e57;-23.502;-46.6216;"2025-10-24 20:00:00";;0;0;0;0;0;3493201;;;;2025-09-17
"League Challenge";"Challenge Dominaria";2025-10-24;"DOMINARIA CARDS E GAMES SP";"R. DR. SIQUEIRA CAMPOS, 307 - LIBERDADE, SÃO PAULO - SP, 01509-020, BRAZIL";"Sao Paulo";"Sao Paulo";;BR;25-10-016214;61d64ceb-9435-4cf6-ab89-75fe988ead9f;-23.5637;-46.6359;"2025-10-24 19:30:00";;0;0;0;0;0;6244206;;;;2025-10-17
"League Challenge";"League Challenge Outubro - Bird Games - 24/10";2025-10-24;"BIRD GAMES";"RUA CARDEAL ARCOVERDE, 1595 - 1° ANDAR - PINHEIROS, SÃO PAULO - SP, 05407-002, BRAZIL";"Sao Paulo";"Sao Paulo";;BR;25-10-003406;a4e6511e-b1a3-4482-be40-f161ebfb9ff9;-23.5609;-46.6869;"2025-10-24 19:30:00";;0;0;0;0;0;6244112;;;;2025-09-22
"League Challenge";"League Challenge Caverna do Dragão Ed4";2025-10-25;"CAVERNA DO DRAGÃO";"R. GOIÁS, 79 - BOQUEIRÃO, SANTOS - SP, 11050-101, BRAZIL";"Sao Paulo";Santos;;BR;25-10-013267;08b8d594-1c1b-4aab-9f38-80a25ef72c66;-23.9611;-46.3262;"2025-10-25 12:00:00";;0;0;0;0;0;6243036;;;;2025-10-10
"League Challenge";"League Challenge EpicVale";2025-10-25;"EPIC VALE";"AV. DR. ADEMAR DE BARROS, 322 - VILA IGUALDADE, SÃO JOSÉ DOS CAMPOS - SP, 12243-620, BRAZIL";"Sao Paulo";"Sao Jose dos Campos";;BR;25-10-007438;0a0d533b-08c4-4a8e-86e0-454795f11995;-23.1949;-45.8911;"2025-10-25 11:30:00";;0;0;0;0;0;6242408;;;;2025-10-01
"League Challenge";"Challenge Outubro na Panda Games BR";2025-10-25;"PANDA GAMES BR (NEW)";"43 RUA CORONEL LEME RUA CORONEL LEME, 43, SP 12900-340, BR";"Sao Paulo";"Braganca Paulista";;BR;25-10-002599;1350b4fd-5e46-4a4e-a02b-e7dd8519ed8e;-22.9575;-46.5421;"2025-10-25 10:00:00";;0;0;0;0;0;6237649;;;;2025-09-18
"League Cup";"TCG Cup de Outubro Freak Games";2025-10-25;"FREAK GAMES";"R. ALFREDO PUJOL, 545 - LOJA 1 - SANTANA, SÃO PAULO - SP, 02017-000, BRAZIL";"Sao Paulo";"Sao Paulo";;BR;25-10-015259;1a0b12e6-a2e4-4814-888c-f3990e7bd15b;-23.5003;-46.6313;"2025-10-25 11:00:00";;0;0;0;0;0;6242651;;;;2025-10-15
"League Challenge";"League Challenge Tamer Shop 2025-10";2025-10-25;"TAMER SHOP HOBBY STORE";"R. IPANEMA, 478 - BRÁS, SÃO PAULO - SP, 03164-200, BRAZIL";"Sao Paulo";"Sao Paulo";;BR;25-10-016397;1dcdac4a-05d8-41ba-8060-5698ef9e59bb;-23.5476;-46.6075;"2025-10-25 14:00:00";;0;0;0;0;0;6244494;;;;2025-10-17
"League Challenge";"Epic Level - League Challenge - Oct";2025-10-25;"EPIC LEVEL";"1929 R. PEDRO AMARAL BOA VISTA, SP 15025-043, BR";"Sao Paulo";"Sao Jose do Rio Preto";;BR;25-10-015502;3f2b6656-5468-436f-af8f-d9987280c36e;-20.8018;-49.3852;"2025-10-25 14:30:00";;0;0;0;0;0;6236575;;;;2025-10-15
"League Challenge";"Dungeon Games TCG League Challenge";2025-10-25;"DUNGEON GAMES STORE";"R. DUQUE DE CAXIAS, 317 - LOJA 4, 2º SUBSOLO - CENTRO, BARUERI - SP, 06401-010, BRAZIL";"Sao Paulo";Barueri;;BR;25-10-015682;4a3fcc71-77bd-48e0-b5f6-5ccc85e5ef69;-23.5091;-46.8739;"2025-10-25 14:00:00";;0;0;0;0;0;6244103;;;;2025-10-16
"League Challenge";"League Challenge Red Bridge 25-10-25";2025-10-25;"RED BRIDGE CARD STORE";"R. APOLINÁRIO, 195 - CENTRO, MOGI GUAÇU - SP, 13840-035, BRAZIL";"Sao Paulo";"Mogi Guacu";;BR;25-10-008536;591d08f4-3014-4a9f-88c8-81983c7a8e5a;-22.3728;-46.9415;"2025-10-25 13:00:00";;0;0;0;0;0;6240485;;;;2025-10-02
"League Challenge";"League Chalenge - Outubro 2025 - Tuzzy Cards";2025-10-25;"TUZZY CARDS";"SOHOFFICE - TORRE B - AV. DR. GASTÃO VIDIGAL, 1132 - SALA 811 - VILA LEOPOLDINA, SÃO PAULO - SP, 053";"Sao Paulo";"Sao Paulo";;BR;25-10-004502;6a76fb9d-bec3-4b19-b0df-46d9e72984e6;-23.529;-46.7398;"2025-10-25 13:00:00";;0;0;0;0;0;6244506;;;;2025-09-25
"League Cup";"CUP X1 Arena";2025-10-25;"X1 - ARENA";"R. QUINZE DE NOVEMBRO, 1071 - CENTRO, INDAIATUBA - SP, 13330-070, BRAZIL";"Sao Paulo";Indaiatuba;;BR;25-10-004700;72c09ec5-2b11-42f4-a9b6-24db26741fab;-23.0845;-47.2143;"2025-10-25 10:00:00";;0;0;0;0;0;6241564;;;;2025-09-25
"League Challenge";"Manabolt League Challenge 10-25";2025-10-25;"MANABOLT JOGOS";"R. SRG. PIERROTI, 311 - CENTRO, LIMEIRA - SP, 13480-134, BRAZIL";"Sao Paulo";Limeira;;BR;25-10-018701;778f55d7-3e4f-47b9-a757-475c27323b89;-22.5682;-47.4076;"2025-10-25 15:00:00";;0;0;0;0;0;6243425;;;;2025-10-24
"League Challenge";"PRIMO LEAGUE CHALLENGE - OUTUBRO 2025";2025-10-25;PRIMOCARDS;"1374 AVENIDA PROF. HENRIQUE DA M. F. JR., SP 13660-136, BR";"Sao Paulo";"Porto Ferreira";;BR;25-10-007876;85e173e4-3fee-47df-a6ba-2a6ffd1d6cdd;-21.8639;-47.4877;"2025-10-25 09:30:00";;0;0;0;0;0;6240856;;;;2025-10-01
"League Challenge";"KEDGE CARD GAMES LEAGUE CHALLENGER";2025-10-25;"KEDGE CARD GAMES";"AV. ITALO ADAMI, 585 - 1º ANDAR, SALA 7 - VILA ZEFERINA, ITAQUAQUECETUBA - SP, 08573-000, BRAZIL";"Sao Paulo";Itaquaquecetuba;;BR;25-10-007377;9b464f12-83d7-44fc-ad81-f6bc198a9cf3;-23.4855;-46.3496;"2025-10-25 12:00:00";;0;0;0;0;0;6244391;;;;2025-10-01
"League Challenge";"Piticas Plaza Sul Challenge TCG 10_2025";2025-10-25;"PITICAS_XP PLAZA SUL";"PRAÇA LEONOR KAUPA, 100 - JARDIM DA SAÚDE, SÃO PAULO - SP, 04151-900, BRAZIL";"Sao Paulo";"Sao Paulo";;BR;25-10-012592;a93de7f4-9b52-4f28-b7b1-7fdf01c33303;-23.6197;-46.6268;"2025-10-25 11:00:00";;0;0;0;0;0;2293017;;;;2025-10-10
"League Challenge";"League Challenge TCG Out Arena Geek 26.10.25";2025-10-25;"ARENA GEEK";"RUA DR. ARMANDO SALLES DE OLIVEIRA, 138 - BOQUEIRÃO, SANTOS - SP, 11050-070, BRAZIL";"Sao Paulo";Santos;;BR;25-10-006090;d02b3151-1227-4f0c-a5ee-c91ccde5e91b;-23.961;-46.3311;"2025-10-25 15:30:00";;0;0;0;0;0;6240797;;;;2025-09-28
"League Challenge";"Salto Geek League Challenge - Outubro";2025-10-25;"SALTO GEEK";"R. LUÍS DIAS DA SILVA, 239 - VILA TEIXEIRA, SALTO - SP, 13320-354, BRAZIL";"Sao Paulo";Salto;;BR;25-10-017131;d5c4987b-9f83-477c-9a9f-08a0bc1e9dac;-23.199;-47.3013;"2025-10-25 14:00:00";;0;0;0;0;0;6240050;;;;2025-10-20
"League Challenge";"SUIKA TCG Challenge 10/2025";2025-10-25;"SUIKA GAMES & ANIMES";"71 ALAMEDA BARÃO DE LIMEIRA, SP 01202-001, BR";"Sao Paulo";"Sao Paulo";;BR;25-10-011494;f59224bc-695e-4027-83c6-3e7c8424a6f2;-23.5399;-46.6435;"2025-10-25 10:00:00";;0;0;0;0;0;6235057;;;;2025-10-08
"League Challenge";"dg challenge";2025-10-25;DG;"90 R. FLORIANO PEIXOTO RUA FLORIANO PEIXOTO, 90 - CENTRO, SP 14870-370, BR";"Sao Paulo";Jaboticabal;;BR;25-10-016830;f7a6c360-8a9b-41bf-8fec-96ff10b16d3e;-21.2618;-48.3156;"2025-10-25 09:00:00";;0;0;0;0;0;2353031;;;;2025-10-19
"League Cup";"TCG League Cup Pandora Geek";2025-10-25;"PANDORA GEEK";"AV. ANDRÔMEDA, 1255 - 3 - JARDIM SATÉLITE, SÃO JOSÉ DOS CAMPOS - SP, 12230-000, BRAZIL";"Sao Paulo";"Sao Jose dos Campos";;BR;25-10-002323;f9be45a9-6e32-4d36-a0fd-b4601547c501;-23.2241;-45.8863;"2025-10-25 10:00:00";;0;0;0;0;0;6239243;;;;2025-09-18
"League Cup";"League Cup (OUT/DEZ) - Chuck TCG";2025-10-26;"CHUCK TCG";"R. NITERÓI, 78 - CENTRO, SÃO CAETANO DO SUL - SP, 09510-210, BRAZIL";"Sao Paulo";"Sao Caetano do Sul";;BR;25-10-002205;085edbc4-2eb6-485c-aec9-60a77e8744c6;-23.6147;-46.5704;"2025-10-26 10:00:00";;0;0;0;0;0;4233203;;;;2025-09-17
"League Challenge";"League Challenge Outubro Flow";2025-10-26;"FLOW GAMES";"RUA DONA GENOVEVA D'ASCOLI, 17 - VILA PRUDENTE, SÃO PAULO - SP, 03132-070, BRAZIL";"Sao Paulo";"Sao Paulo";;BR;25-10-004221;11455201-3e87-46b0-9e74-b8e0c635fe90;-23.5816;-46.5849;"2025-10-26 14:00:00";;0;0;0;0;0;6240671;;;;2025-09-25
"League Challenge";"Liga Challenge Gato Guerreiro - Outubro";2025-10-26;"GATO GUERREIRO BAR E JOGOS";"R. GEN. GLICÉRIO, 4152 - VILA REDENTORA, SÃO JOSÉ DO RIO PRETO - SP, 15015-400, BRAZIL";"Sao Paulo";"Sao Jose do Rio Preto";;BR;25-10-007272;4533c62e-fb82-4306-ac4d-bcdc7f92a497;-20.818;-49.3893;"2025-10-26 14:00:00";;0;0;0;0;0;6242152;;;;2025-10-01
"League Challenge";"Akagami Challenge Out";2025-10-26;AKAGAMI;"R. ANTÔNIO CARLOS, 686 - CONSOLAÇÃO, SÃO PAULO - SP, 01309-010, BRAZIL";"Sao Paulo";"Sao Paulo";;BR;25-10-012757;4c418bea-0e1c-43fb-b43e-97fabfe91426;-23.5542;-46.6605;"2025-10-26 12:00:00";;0;0;0;0;0;6244816;;;;2025-10-10
"League Challenge";"Overrun Challenge - Outubro";2025-10-26;"OVERRUN GEEK STORE";"AV. CRISTOVÃO COLOMBO, 1533 - CENTRO, ARARAQUARA - SP, 14801-200, BRAZIL";"Sao Paulo";Araraquara;;BR;25-10-002600;4f0ed67c-90e9-4ab5-8288-d05c93792568;-21.787;-48.1859;"2025-10-26 10:30:00";;0;0;0;0;0;6242862;;;;2025-09-18
"League Challenge";"GODS QUALIFIER";2025-10-26;GODS;"R. PREF. JUSTINO PAIXÃO - CENTRO, SANTO ANDRÉ - SP, 09020-130, BRAZIL";"Sao Paulo";"Santo Andre";;BR;25-10-005023;6c9c081a-c273-41d6-a36c-17d17c216412;-23.6599;-46.5291;"2025-10-26 13:00:00";;0;0;0;0;0;6242821;;;;2025-09-26
"League Cup";"TCG League Cup For Fun Game Shop";2025-10-26;"RUA JOSÉ LUCAS";"R. JOSÉ LUCAS, 255 - CENTRO, ATIBAIA - SP, 12940-700, BRAZIL";"Sao Paulo";Atibaia;;BR;25-10-010648;793d5e61-1340-4b6b-b324-e54ff9adde47;-23.1171;-46.552;"2025-10-26 16:00:00";;0;0;0;0;0;6240615;;;;2025-10-07
"League Cup";"TCG League Cup Kinoene Cards";2025-10-26;"KINOENE CARDS";"53 TV. MAJ. CESAR LEITE, SP 12245-800, BR";"Sao Paulo";"Sao Jose dos Campos";;BR;25-10-002325;ac954db1-5b3a-4b58-99b5-4ff03f1a3037;-23.1897;-45.8864;"2025-10-26 10:00:00";;0;0;0;0;0;6239390;;;;2025-09-18
"League Challenge";"TABERNA GAMES - HallowChallenge";2025-10-26;"TABERNA GAMES - LOJA";"R. RUI BARBOSA, 351 - RIBEIRO, LINS - SP, 16401-040, BRAZIL";"Sao Paulo";Lins;;BR;25-10-017742;b06a839d-ac6e-4fbb-aae2-16a43de502f4;-21.6698;-49.7453;"2025-10-26 14:30:00";;0;0;0;0;0;6243561;;;;2025-10-20
"League Challenge";"CHALLENGE OUTUBRO - PG-SP";2025-10-26;"PLAYGROUND GAMES";"CALÇADA DAS SAMAMBAIAS, 29 - ALPHAVILLE COMERCIAL, BARUERI - SP, 06453-029, BRAZIL";"Sao Paulo";Barueri;;BR;25-10-005074;cef216cf-6045-49aa-b7bf-d9ccea14ad04;-23.4961;-46.8512;"2025-10-26 14:00:00";;0;0;0;0;0;6193219;;;;2025-09-26
"League Challenge";"League Challenge - Seven Seas";2025-10-26;"SEVEN SEAS";"AV. JUSCELINO KUBITSCHEK DE OLIVEIRA, 85 - CENTRO, TAUBATÉ - SP, 12010-600, BRAZIL";"Sao Paulo";Taubate;;BR;25-10-006377;d956f2df-c3cb-4eaf-af01-e198b22e0a5c;-23.025;-45.5639;"2025-10-26 15:30:00";;0;0;0;0;0;6245352;;;;2025-09-29
"League Challenge";"League Challenge Outubro Main Deck";2025-10-27;"MAIN DECK";"R. GALVÃO BUENO, 714 - 2º ANDAR - LIBERDADE, SÃO PAULO - SP, 01506-000, BRAZIL";"Sao Paulo";"Sao Paulo";;BR;25-10-015599;714ae51f-ac0e-466b-997f-7dd65389abcc;-23.562;-46.6349;"2025-10-27 19:35:00";;0;0;0;0;0;6243756;;;;2025-10-16
"League Challenge";"Challenge Outubro/2025";2025-10-28;"MAGIC RAIZ";"R. TEN. AVELAR PÍRES DE AZEVEDO, 359 - CENTRO, OSASCO - SP, 06016-065, BRAZIL";"Sao Paulo";Osasco;;BR;25-10-009734;d6501f83-43c9-4aae-8bfb-ba66d3dac07f;-23.5312;-46.7798;"2025-10-28 19:00:00";;0;0;0;0;0;6237476;;;;2025-10-07
"League Challenge";"League Challenge Legacy tcg 26_04_2025";2025-10-29;"LEGACY TCG";"R. MARIA JOSÉ, QUADRA 8 - VILA SANTA TEREZA, BAURU - SP, 17012-160, BRAZIL";"Sao Paulo";Bauru;;BR;25-10-002151;4de75e02-214d-4bcb-b768-6f65158d74da;-22.3311;-49.0631;"2025-10-29 19:30:00";;0;0;0;0;0;6238617;;;;2025-09-17
"League Challenge";"Challenge de Outubro";2025-10-30;"A GUILDA COLECIONÁVEIS";"1008 R. BERNARDINO DE CAMPOS, SP 13419-100, BR";"Sao Paulo";Piracicaba;;BR;25-10-015066;8155cc22-5b99-469e-807f-deb548b8ed60;-22.7195;-47.6481;"2025-10-30 19:00:00";;0;0;0;0;0;672927;;;;2025-10-15
"League Challenge";"League Challenge Goldhouse | Pokémon TCG";2025-10-30;"LOJA GOLDHOUSE";"AV. SÁBATO RONSINI, 401 - 1 - CENTRO, SANTA BÁRBARA D'OESTE - SP, 13450-350, BRAZIL";"Sao Paulo";"Santa Barbara d'Oeste";;BR;25-10-002372;c2a07075-0208-42c3-b188-388b040e97e9;-22.759;-47.4172;"2025-10-30 19:30:00";;0;0;0;0;0;6244804;;;;2025-09-18
"League Challenge";"League Challenge Outubro 2025 - Loja do Kooper";2025-10-30;"LOJA DO KOOPER";"R. NANUQUE, 510 - VILA LEOPOLDINA, SÃO PAULO - SP, 05302-031, BRAZIL";"Sao Paulo";"Sao Paulo";;BR;25-10-007277;f20643bb-29da-4f0d-a627-d89af66698f0;-23.5312;-46.7256;"2025-10-30 19:30:00";;0;0;0;0;0;6243957;;;;2025-10-01
"League Challenge";"Exilio Card Games Challenge Outubro";2025-10-31;"EXILIO CARD GAMES";"R. MONSENHOR NUNO, 220 - SALA 06 - CENTRO, SUZANO - SP, 08674-035, BRAZIL";"Sao Paulo";Suzano;;BR;25-10-017121;8e76d217-861f-4ed2-b572-39b4622303c6;-23.537;-46.3113;"2025-10-31 19:00:00";;0;0;0;0;0;6242853;;;;2025-10-19
"Pre Release";"Phantasmal Flames Prerelease Tornament - Eternatus Card Hous";2025-11-01;"ETERNATUS CARD HOUSE";"121 R. CAROLINA LUCCA VAZ, SP 13303-519, BR";"Sao Paulo";Itu;;BR;25-11-011010;040f2281-f401-4f84-8d6a-aa484902d091;-23.2763;-47.285;"2025-11-01 10:30:00";;0;0;0;0;0;6103218;;;;2025-10-20
"Pre Release";"Banzai Torneio De Pré Lançamento Phantasmal Flames";2025-11-01;"BANZAI CARDS";"R. JOSÉ NÓBREGA BARBOSA, 39 - ÁGUA FRIA, SÃO PAULO - SP, 02336-090, BRAZIL";"Sao Paulo";"Sao Paulo";;BR;25-11-006547;0697f822-de4a-473f-9365-e0dc7096fbb7;-23.4804;-46.6146;"2025-11-01 11:00:00";;0;0;0;0;0;6241590;;;;2025-10-10
"Pre Release";"Phantasmal Flames Prerelease";2025-11-01;"SANTUÁRIO NERD";"AV. NOVE DE JULHO, 1053, JOSÉ BONIFÁCIO - SP, 15200-000, BRAZIL";"Sao Paulo";"Jose Bonifacio";;BR;25-11-010892;24e4395e-cb7f-4290-9360-4a1bd28f8f0b;-21.0568;-49.6851;"2025-11-01 13:00:00";;0;0;0;0;0;6241644;;;;2025-10-20
"Pre Release";"Prerelease Fogo Fantasmagórico - Sábado";2025-11-01;"OVERRUN GEEK STORE";"AV. CRISTOVÃO COLOMBO, 1533 - CENTRO, ARARAQUARA - SP, 14801-200, BRAZIL";"Sao Paulo";Araraquara;;BR;25-11-011321;296f3791-3ccd-46fd-a7b0-e3adca02d490;-21.787;-48.1859;"2025-11-01 10:00:00";;0;0;0;0;0;6242862;;;;2025-10-22
"Pre Release";"Pre Lançamento Phantasmal Flames";2025-11-01;"FARAWAY - JOGOS E DESAFIOS";"60 AV. BERNARDINO DE CAMPOS CENTRO, SP 12600-200, BR";"Sao Paulo";Lorena;;BR;25-11-008796;312586de-0c69-411b-81bb-38a32c9cb12b;-22.7302;-45.1232;"2025-11-01 10:00:00";;0;0;0;0;0;6239316;;;;2025-10-15
"League Challenge";"SUIKA TCG CHallenge";2025-11-01;"SUIKA GAMES & ANIMES";"71 ALAMEDA BARÃO DE LIMEIRA, SP 01202-001, BR";"Sao Paulo";"Sao Paulo";;BR;25-11-010980;32f61e20-b0f8-48fd-997b-5dab9ab89543;-23.5399;-46.6435;"2025-11-01 10:00:00";;0;0;0;0;0;6235057;;;;2025-10-20
"Pre Release";"Torneio de Pré-lançamento Fogo Fantasmagórico Freak Games";2025-11-01;"FREAK GAMES";"R. ALFREDO PUJOL, 545 - LOJA 1 - SANTANA, SÃO PAULO - SP, 02017-000, BRAZIL";"Sao Paulo";"Sao Paulo";;BR;25-11-008398;348a1c4a-87e9-425b-ad78-f852128ec3c3;-23.5003;-46.6313;"2025-11-01 10:00:00";;0;0;0;0;0;6242651;;;;2025-10-15
"Pre Release";"Phantasmal Flames Prerelease";2025-11-01;"IMPEIRUM TCG";"R. PREF. LESSA, 456-506 - CENTRO, ESPÍRITO SANTO DO PINHAL - SP, 13990-000, BRAZIL";"Sao Paulo";"Espirito Santo do Pinhal";;BR;25-11-003761;34ec66a2-f21c-4d59-b8ce-c6c231e7811d;-22.1995;-46.7474;"2025-11-01 13:00:00";;0;0;0;0;0;6242142;;;;2025-10-07
"Pre Release";"Phantasmal Flames Prerelease";2025-11-01;"MONT CARD SHOP";"R. ROXO MOREIRA, 1624 - CIDADE UNIVERSITÁRIA, CAMPINAS - SP, 13083-592, BRAZIL";"Sao Paulo";Campinas;;BR;25-11-011025;354e9402-2a2e-4e01-ac27-6660dfc2949e;-22.8239;-47.0686;"2025-11-01 13:00:00";;0;0;0;0;0;6242543;;;;2025-10-20
"Pre Release";"Pré Release Fogo Fantasmagórico";2025-11-01;"DOMINARIA CARDS E GAMES SP";"R. DR. SIQUEIRA CAMPOS, 307 - LIBERDADE, SÃO PAULO - SP, 01509-020, BRAZIL";"Sao Paulo";"Sao Paulo";;BR;25-11-011228;381fc021-9db1-45dd-a1c2-4d11b827c319;-23.5637;-46.6359;"2025-11-01 11:00:00";;0;0;0;0;0;6244206;;;;2025-10-22
"Pre Release";"[Artplay] Evento de Pré Lançamento - Chamas Fantasmagóricas";2025-11-01;ARTPLAY;"45 R. ONZE DE AGOSTO 2º ANDAR, SP 18270-001, BR";"Sao Paulo";Tatui;;BR;25-11-005679;39c067f0-ee3b-43a8-966b-fff1682badf4;-23.3474;-47.8471;"2025-11-01 15:30:00";;0;0;0;0;0;6239050;;;;2025-10-08
"Pre Release";"Phantasmal Flames Prerelease ArenaRPG";2025-11-01;"ARENA RPG";"R. SILVA JARDIM, 9-84 - VILA SÃO JOÃO DA BOA VISTA, BAURU - SP, 17060-240, BRAZIL";"Sao Paulo";Bauru;;BR;25-11-008306;3ca4730a-b8f0-4ae3-9fe7-6d67591fa141;-22.3147;-49.0829;"2025-11-01 19:00:00";;0;0;0;0;0;6241714;;;;2025-10-15
"Pre Release";"Pre Lançamento";2025-11-01;LOTUSGAMES;"RUA EUCLIDES DA CUNHA, 82 - CENTRO, OURINHOS - SP, 19900-043, BRAZIL";"Sao Paulo";Ourinhos;;BR;25-11-010886;45bd9c1e-4832-4d3d-b1b6-fe3da99c60a7;-22.9774;-49.8657;"2025-11-01 14:00:00";;0;0;0;0;0;6241313;;;;2025-10-20
"Pre Release";"Epic Level - Prerelease - Fogo Fantasmagórico";2025-11-01;"EPIC LEVEL";"1929 R. PEDRO AMARAL BOA VISTA, SP 15025-043, BR";"Sao Paulo";"Sao Jose do Rio Preto";;BR;25-11-008756;472dae80-b49b-44c7-b596-e3892c36b49c;-20.8018;-49.3852;"2025-11-01 14:30:00";;0;0;0;0;0;6236575;;;;2025-10-15
"Pre Release";"Pre Lançamento Phantasmal Flames";2025-11-01;"FARAWAY - JOGOS E DESAFIOS";"60 AV. BERNARDINO DE CAMPOS CENTRO, SP 12600-200, BR";"Sao Paulo";Lorena;;BR;25-11-008795;4c5be933-83db-4e09-9421-e23219c9b623;-22.7302;-45.1232;"2025-11-01 14:30:00";;0;0;0;0;0;6239316;;;;2025-10-15
"Pre Release";"Pre Lançamento Chamas Fantasmagóricas na Cidade de Papel";2025-11-01;"CIDADE DE PAPEL";"R. NAZARÉ PAULISTA, 261 - VILA MADALENA, SÃO PAULO - SP, 05448-000, BRAZIL";"Sao Paulo";"Sao Paulo";;BR;25-11-011282;533f4e74-2fb5-4f78-88d9-6169c5816348;-23.5455;-46.7002;"2025-11-01 14:00:00";;0;0;0;0;0;6240582;;;;2025-10-22
"Pre Release";"Phantasmal Flames Prerelease";2025-11-01;"DOMINIO NERD";"R. NOVE DE JULHO, 321 - BANZATO, MARÍLIA - SP, 17515-150, BRAZIL";"Sao Paulo";Marilia;;BR;25-11-005804;594458f9-c2cb-4aa4-9bd6-f2570e746f85;-22.212;-49.9397;"2025-11-01 14:00:00";;0;0;0;0;0;6242625;;;;2025-10-08
"Pre Release";"Pré-Lançamento Fogo Fantasmagórico - Chuck TCG";2025-11-01;"CHUCK TCG";"R. NITERÓI, 78 - CENTRO, SÃO CAETANO DO SUL - SP, 09510-210, BRAZIL";"Sao Paulo";"Sao Caetano do Sul";;BR;25-11-009642;5d193718-234c-4409-8bef-63471a419bbb;-23.6147;-46.5704;"2025-11-01 11:00:00";;0;0;0;0;0;4233203;;;;2025-10-17
"Pre Release";"Pré Lançamento Fogo Fantasmagôrico";2025-11-01;"BALAIO DE JOGOS";"AV. SÃO VICENTE, 5451 - JARDIM NOEMIA, FRANCA - SP, 14403-720, BRASIL - JARDIM NOEMIA, FRANCA - SP,";"Sao Paulo";Franca;;BR;25-11-004022;6526bcc8-6272-49b0-ad3f-a3570571212e;-20.5609;-47.3716;"2025-11-01 13:00:00";;0;0;0;0;0;6242229;;;;2025-10-07
"Pre Release";"Lançamento Fogo Fantasmagórico SP";2025-11-01;"PLAYGROUND SP";"1601 R. DA MOOCA, SP 03103-001, BR";"Sao Paulo";Barueri;;BR;25-11-008303;694913a0-2d91-4e33-b590-6354608daa14;-23.4961;-46.8512;"2025-11-01 13:00:00";;0;0;0;0;0;6193219;;;;2025-10-15
"Pre Release";"Tesko Pré Release Fogo Fantasmagórico";2025-11-01;"TESKO CARDS GAMES";"R. NÁPOLIS, 87 - JARDIM VENEZA, SÃO JOSÉ DOS CAMPOS - SP, 12237-093, BRAZIL";"Sao Paulo";"Sao Jose dos Campos";;BR;25-11-004161;69c566c0-c980-4b74-a880-67eb5f7f7ce9;-23.2444;-45.9114;"2025-11-01 14:30:00";;0;0;0;0;0;6244854;;;;2025-10-07
"Pre Release";"PHANTASMAL FLAMES PRERELEASE  01112025";2025-11-01;"LEGENDS GAME STORE";"R. CAP. GERALDO, 247 - CENTRO, TAUBATÉ - SP, 12080-340, BRAZIL";"Sao Paulo";Taubate;;BR;25-11-011028;77810573-8d82-4cf6-9d8c-a46dc15851a9;-23.0289;-45.5506;"2025-11-01 15:00:00";;0;0;0;0;0;6233889;;;;2025-10-20
"League Challenge";"Liga Challenge SpellCast";2025-11-01;"SPELLCAST GAMES";"AV. DR. TIMÓTEO PENTEADO, 2778 - SOBRELOJA - VILA SAO JUDAS TADEU, GUARULHOS - SP, 07061-000, BRAZIL";"Sao Paulo";Guarulhos;;BR;25-11-002360;7dee15d3-ba9f-4ac4-9966-4730fd98514c;-23.4513;-46.5507;"2025-11-01 14:00:00";;0;0;0;0;0;6242745;;;;2025-10-01
"Pre Release";"Pré-lançamento Phantasmal Flames";2025-11-01;"MUITO! COLECIONÁVEIS";"AV. BRASIL, 1456 - JARDIM GUANABARA, CAMPINAS - SP, 13073-030, BRAZIL";"Sao Paulo";Campinas;;BR;25-11-008777;823239cb-0617-4833-8f00-a0703a29ced7;-22.884;-47.0703;"2025-11-01 15:15:00";;0;0;0;0;0;6241555;;;;2025-10-15
"Pre Release";"Pre Release - Phantasmal Flames";2025-11-01;"PIMP MY DECK HOBBY STORE";"AVENIDA CANDIDO MOTA FILHO, 545 - SÃO FRANCISCO - CENTER SHOP - LOJA 39 - CIDADE SÃO FRANCISCO, SÃO";"Sao Paulo";"Sao Paulo";;BR;25-11-009635;86c01c22-0a52-48a4-876f-d250e3063a71;-23.5579;-46.7554;"2025-11-01 12:00:00";;0;0;0;0;0;6241502;;;;2025-10-17
"Pre Release";"Pré-Lançamento de Fogo Fantasmagórico";2025-11-01;"SALVAIA STORE";"R. CONSELHEIRO FURTADO, 692 - SALA 4 - LIBERDADE, SÃO PAULO - SP, 01511-000, BRAZIL";"Sao Paulo";"Sao Paulo";;BR;25-11-009360;874cf66b-ecd0-40d4-b89b-27790283faed;-23.5591;-46.633;"2025-11-01 13:00:00";;0;0;0;0;0;6242920;;;;2025-10-16
"Pre Release";"PRÉ LANÇAMENTO - FOGO FANTASMAGÓRICO";2025-11-01;PRIMOCARDS;"1374 AVENIDA PROF. HENRIQUE DA M. F. JR., SP 13660-136, BR";"Sao Paulo";"Porto Ferreira";;BR;25-11-011108;9576d8fb-9c1c-4f74-8d6d-eb357a9bcfb5;-21.8639;-47.4877;"2025-11-01 15:00:00";;0;0;0;0;0;6240856;;;;2025-10-22
"Pre Release";"Pré-Release Goldhouse";2025-11-01;"LOJA GOLDHOUSE";"AV. SÁBATO RONSINI, 401 - 1 - CENTRO, SANTA BÁRBARA D'OESTE - SP, 13450-350, BRAZIL";"Sao Paulo";"Santa Barbara d'Oeste";;BR;25-11-005110;9783d84d-8b91-41e1-a361-08f8a712a1db;-22.759;-47.4172;"2025-11-01 19:30:00";;0;0;0;0;0;6244804;;;;2025-10-07
"Pre Release";"Pré Release Phantasmal Flames Newstation Sorocaba";2025-11-01;"NEWSTATION SOROCABA";"R. SANTA CLARA, 266 - CENTRO, SOROCABA - SP, 18035-252, BRAZIL";"Sao Paulo";Sorocaba;;BR;25-11-011031;9b18e9f5-6e3b-4da6-8723-96cc0d0c94a3;-23.5035;-47.4576;"2025-11-01 10:00:00";;0;0;0;0;0;2032931;;;;2025-10-20
"Pre Release";"PRÉ LANÇAMENTO - FOGO FANTASMAGÓRICO - #01 - SÁBADO 01/11 -";2025-11-01;XPLACE;"32 R. JORDÂNIA, SP 03543-000, BR";"Sao Paulo";"Sao Paulo";;BR;25-11-011242;a1c249bb-d0df-4263-b545-9d17f2691473;-23.5325;-46.5158;"2025-11-01 13:00:00";;0;0;0;0;0;6240069;;;;2025-10-22
"Pre Release";"pre lançamento pokemon  fogo fantasmagorico";2025-11-01;"GEEX HOBBY STORE";"R. BARÃO DO RIO BRANCO, 1252 - VILA DO ESTADIO, PRES. PRUDENTE - SP, 19015-010, BRAZIL";"Sao Paulo";"Presidente Prudente";;BR;25-11-011029;a520b981-7783-499d-8986-7eef81c39ce4;-22.1206;-51.3942;"2025-11-01 19:00:00";;0;0;0;0;0;6241697;;;;2025-10-20
"Pre Release";"Pré-Release Megaevolução - Fogo Fantasmagórico - Tuzzy Cards";2025-11-01;"TUZZY CARDS";"AV. DR. GASTÃO VIDIGAL, 1132 - BLOCO A - VILA LEOPOLDINA, SÃO PAULO - SP, 05314-000, BRAZIL";"Sao Paulo";"Sao Paulo";;BR;25-11-009113;aeb62ad1-9bba-440c-9025-25dcb8e058f0;-23.529;-46.7398;"2025-11-01 21:00:00";;0;0;0;0;0;6244506;;;;2025-10-16
"Pre Release";"Pré-Release Megaevolução - Fogo Fantasmagórico - Tuzzy Cards";2025-11-01;"TUZZY CARDS";"AV. DR. GASTÃO VIDIGAL, 1132 - BLOCO A - VILA LEOPOLDINA, SÃO PAULO - SP, 05314-000, BRAZIL";"Sao Paulo";"Sao Paulo";;BR;25-11-009115;aef1be09-2776-4c65-b1ce-579728c90bcf;-23.529;-46.7398;"2025-11-01 13:00:00";;0;0;0;0;0;6244506;;;;2025-10-16
"Pre Release";"Evento de Pre Lançamento Fogo Fantasmagórico";2025-11-01;"EPIC VALE";"AV. DR. ADEMAR DE BARROS, 322 - VILA IGUALDADE, SÃO JOSÉ DOS CAMPOS - SP, 12243-620, BRAZIL";"Sao Paulo";"Sao Jose dos Campos";;BR;25-11-011276;b6f56d8e-8cb1-41b6-ae8c-efb5b31c0f8b;-23.1949;-45.8911;"2025-11-01 11:30:00";;0;0;0;0;0;6242408;;;;2025-10-22
"Pre Release";pré;2025-11-01;DG;"90 R. FLORIANO PEIXOTO RUA FLORIANO PEIXOTO, 90 - CENTRO, SP 14870-370, BR";"Sao Paulo";Jaboticabal;;BR;25-11-010107;c29106af-d755-459f-a135-b5d8570ecb94;-21.2618;-48.3156;"2025-11-01 09:00:00";;0;0;0;0;0;2353031;;;;2025-10-19
"Pre Release";"PRÉ-LANÇAMENTO: MEGAEVOLUÇÃO - FOGO FANTASMAGÓRICO RUN TO A";2025-11-01;"POLAR JOGOS";"2013 ALAMEDA DOS NHAMBIQUARAS SUBSOLO - COLETIVO GEEK, SP 04090-013, BR";"Sao Paulo";"Sao Paulo";;BR;25-11-003798;c3f2622c-6678-4914-86a5-2f9e453b6b0b;-23.6147;-46.6663;"2025-11-01 13:00:00";;0;0;0;0;0;6233645;;;;2025-10-07
"Pre Release";"ME Fogo Fantasmagórico Pre Lançamento Arena Geek";2025-11-01;"ARENA GEEK";"RUA DR. ARMANDO SALLES DE OLIVEIRA, 138 - BOQUEIRÃO, SANTOS - SP, 11050-070, BRAZIL";"Sao Paulo";Santos;;BR;25-11-004137;c9f72cf2-839c-4f70-86f0-8267bd06d042;-23.961;-46.3311;"2025-11-01 18:00:00";;0;0;0;0;0;6240797;;;;2025-10-07
"Pre Release";"Piticas Pre Release - Mega Phantasmal Flames";2025-11-01;"PITICAS_XP PLAZA SUL";"PRAÇA LEONOR KAUPA, 100 - JARDIM DA SAÚDE, SÃO PAULO - SP, 04151-900, BRAZIL";"Sao Paulo";"Sao Paulo";;BR;25-11-009438;cf9969ff-ecf1-437f-8cc7-f99834754f6f;-23.6197;-46.6268;"2025-11-01 11:00:00";;0;0;0;0;0;2293017;;;;2025-10-17
"Pre Release";"Desafio Estratégico - Fogo Fantasmagórico 1";2025-11-01;"PANDA GAMES BR (NEW)";"43 RUA CORONEL LEME RUA CORONEL LEME, 43, SP 12900-340, BR";"Sao Paulo";"Braganca Paulista";;BR;25-11-011645;d179ea61-9925-47f2-96e1-ab535ad0b360;-22.9575;-46.5421;"2025-11-01 15:00:00";;0;0;0;0;0;6237649;;;;2025-10-24
"Pre Release";"SUIKA Pré Megaevolução - Fogo Fantasmagórico";2025-11-01;"SUIKA GAMES & ANIMES";"71 ALAMEDA BARÃO DE LIMEIRA, SP 01202-001, BR";"Sao Paulo";"Sao Paulo";;BR;25-11-010976;d2b5e293-d2cd-4635-b51f-e52e594ff0d3;-23.5399;-46.6435;"2025-11-01 12:30:00";;0;0;0;0;0;6235057;;;;2025-10-20
"Pre Release";"Pré-Release Alpha Jogos: Fogo Fantasmagórico";2025-11-01;"ALPHA JOGOS";"R. IPIRANGA, 957 - SALA 5 - JARDIM SANTISTA, MOGI DAS CRUZES - SP, 08730-000, BRAZIL";"Sao Paulo";"Mogi das Cruzes";;BR;25-11-011187;d969cde6-0382-427a-90d2-781e118e54bc;-23.529;-46.1994;"2025-11-01 15:30:00";;0;0;0;0;0;6244649;;;;2025-10-22
"Pre Release";"Torneio Prerelease Guardiões Store";2025-11-01;"GUARDIÕES STORE";"R. CENTENÁRIO, 1111 - VILA SINIBALDI, SÃO JOSÉ DO RIO PRETO - SP, 15084-140, BRAZIL";"Sao Paulo";"Sao Jose do Rio Preto";;BR;25-11-005807;dee4f5a9-de2f-4850-8ccc-7841ce1511fe;-20.8276;-49.3758;"2025-11-01 15:30:00";;0;0;0;0;0;6241895;;;;2025-10-10
"Pre Release";"Pré Release Megaevolução Fogo Fantasmagórico";2025-11-01;GENZAI;"84 R. RUBIÃO JÚNIOR LOJA 40, SP 12210-180, BR";"Sao Paulo";"Sao Jose dos Campos";;BR;25-11-005712;e6e5a1fa-88ac-4ef0-b80b-2dfbac0af0a9;-23.1845;-45.8863;"2025-11-01 10:00:00";;0;0;0;0;0;6163210;;;;2025-10-08
"Pre Release";"Phantasmal Flames Prerelease";2025-11-01;"ARCADE STORE";"AV. PAULISTA, 1208 - VILA NOSSA SRA. DE FATIMA, AMERICANA - SP, 13478-580, BRAZIL";"Sao Paulo";Americana;;BR;25-11-010895;ed7a8324-ebe2-4b09-a205-80796da179a3;-22.7375;-47.3134;"2025-11-01 14:00:00";;0;0;0;0;0;6233492;;;;2025-10-20
"Pre Release";"PRE RELEASE PHANTASMAL FLAMES RESERVA";2025-11-01;"RESERVA GAME STORE";"R. FREI GASPAR, 626 - MOOCA, SÃO PAULO - SP, 03164-100, BRAZIL";"Sao Paulo";"Sao Paulo";;BR;25-11-009694;f0bfc38b-14de-4597-b155-83f5974e05b1;-23.548;-46.6055;"2025-11-01 14:00:00";;0;0;0;0;0;6245113;;;;2025-10-17
"Pre Release";"#1 Pre Release Fogo Fantasmagórico - Bolovo Games";2025-11-01;"BOLOVO GAMES";"81 R. MACHADO DE ASSIS, SP 11050-060, BR";"Sao Paulo";Santos;;BR;25-11-009911;fb142671-5ae1-4ad5-9271-082f23e42173;-23.9631;-46.3241;"2025-11-01 15:30:00";;0;0;0;0;0;6237906;;;;2025-10-17
"Pre Release";"Pré-Lançamento - Fogo Fantasmagórico 2";2025-11-01;JACKPOTJOGOS;"1140 RUA DOM PEDRO II, SP 13560-235, BR";"Sao Paulo";"Sao Carlos";;BR;25-11-010907;fc2999cf-5eff-498c-99ff-1fb69420035d;-22.0148;-47.8878;"2025-11-01 14:30:00";;0;0;0;0;0;6238838;;;;2025-10-20
"Pre Release";"Meruru Liberdad Phantasmal Flames Prerelease";2025-11-01;"MERURU LIBERDADE";"526 R. GALVÃO BUENO 526, SP 01506-000, BR";"Sao Paulo";"Sao Paulo";;BR;25-11-009667;fde42246-0d0e-4273-871a-62253f9e9f7e;-23.5603;-46.635;"2025-11-01 13:00:00";;0;0;0;0;0;6239043;;;;2025-10-17
"Pre Release";"Pré-Lançamento - Fogo Fantasmagórico 1";2025-11-01;JACKPOTJOGOS;"1140 RUA DOM PEDRO II, SP 13560-235, BR";"Sao Paulo";"Sao Carlos";;BR;25-11-010906;fe68e474-e781-4061-b51c-1991ef3b4aaf;-22.0148;-47.8878;"2025-11-01 10:00:00";;0;0;0;0;0;6238838;;;;2025-10-20
"Pre Release";"PRE RELEASE - FOGO FANTASMAGÓRICO";2025-11-01;"CARDS HALL";"91 R. ANTÔNIO CÂNDIDO PEREIRA, SP 18030-205, BR";"Sao Paulo";Sorocaba;;BR;25-11-008521;ffbde783-56e3-447a-b405-dc2c0d69b16b;-23.5135;-47.46;"2025-11-01 15:00:00";;0;0;0;0;0;5923207;;;;2025-10-15
"Pre Release";"Pré-Lançamento Fogo Fantasmagórico - Chuck TCG";2025-11-02;"CHUCK TCG";"R. NITERÓI, 78 - CENTRO, SÃO CAETANO DO SUL - SP, 09510-210, BRAZIL";"Sao Paulo";"Sao Caetano do Sul";;BR;25-11-009645;0823d5e1-1967-4581-833a-6fe5245336f5;-23.6147;-46.5704;"2025-11-02 11:00:00";;0;0;0;0;0;4233203;;;;2025-10-17
"Pre Release";"Pre Release MEGAEVOLUÇÃO — FOGO FANTASMAGÓRICO";2025-11-02;"BARDOS GAME STORE";"466 R. CEL. ERNESTO DE OLIVEIRA, SP 13870-249, BR";"Sao Paulo";"Sao Joao da Boa Vista";;BR;25-11-003621;0f542574-8672-48a8-be67-38ae7b9a25b7;-21.9799;-46.7958;"2025-11-02 10:00:00";;0;0;0;0;0;6238556;;;;2025-10-07
"Pre Release";"TORNEIO PRÉ LANÇAMENTO MEGAEVOLUÇÃO- FOGO FANTASMAGÓRICO";2025-11-02;"ESPAÇO GEEK AVARÉ";"R. PERNAMBUCO, 1236 - CENTRO, AVARÉ - SP, 18705-020, BRAZIL";"Sao Paulo";Avare;;BR;25-11-003251;11a0a746-4eb6-426e-971a-2a273519437e;-23.0981;-48.9244;"2025-11-02 14:00:00";;0;0;0;0;0;6245137;;;;2025-10-03
"Pre Release";"Pré Release Megaevolução - Fogo Fantasmagórico";2025-11-02;"RED BRIDGE CARD STORE";"R. APOLINÁRIO, 195 - CENTRO, MOGI GUAÇU - SP, 13840-035, BRAZIL";"Sao Paulo";"Mogi Guacu";;BR;25-11-010987;1fb47a98-94d8-4082-8804-7eea2b42325e;-22.3728;-46.9415;"2025-11-02 13:00:00";;0;0;0;0;0;6240485;;;;2025-10-20
"Pre Release";"Meruru Liberdad Phantasmal Flames Prerelease";2025-11-02;"MERURU LIBERDADE";"526 R. GALVÃO BUENO 526, SP 01506-000, BR";"Sao Paulo";"Sao Paulo";;BR;25-11-009668;29adcc33-4a4a-492b-a6ca-bf7e06481b62;-23.5603;-46.635;"2025-11-02 13:00:00";;0;0;0;0;0;6239043;;;;2025-10-17
"Pre Release";"Click Cards & Games - Pré-Release Fogo Fantasmagórico";2025-11-02;"CLICK CARDS & GAMES";"20 PRAÇA JOÃO PESSOA ANDAR 01, SALA 01, SP 08674-040, BR";"Sao Paulo";Suzano;;BR;25-11-011784;421bcac7-4d53-4f46-8ad1-d6aa478128cb;-23.5354;-46.3097;"2025-11-02 11:00:00";;0;0;0;0;0;6240565;;;;2025-10-24
"Pre Release";"Pre lançamento Megaevolução: Fogo Fantasmagórico";2025-11-02;"LOJA DO TOGURO";"AV. DOM PEDRO II, 359 - 1 - JARDIM, SANTO ANDRÉ - SP, 09090-521, BRAZIL";"Sao Paulo";"Santo Andre";;BR;25-11-003885;58d0c9d5-29a8-4c79-a379-b44a99b72b8a;-23.6832;-46.5085;"2025-11-02 15:00:00";;0;0;0;0;0;6242421;;;;2025-10-07
"Pre Release";"Pré-lançamento de Megaevolução - Fogo Fantasmagórico";2025-11-02;"GRADD CARDS";"AV. ANDRÔMEDA, 2949 - JARDIM SATÉLITE, SÃO JOSÉ DOS CAMPOS - SP, 12233-000, BRAZIL";"Sao Paulo";"Sao Jose dos Campos";;BR;25-11-005658;5d93baaf-b8f8-41cb-b767-1032a35c8cbb;-23.2387;-45.8847;"2025-11-02 14:30:00";;0;0;0;0;0;6244176;;;;2025-10-08
"Pre Release";"Pré Release Mega Evolução: Fogo Fantasmagórico - Life Geek";2025-11-02;"LIFE GEEK";"238 B R. SOROCABA, SP 13300-340, BR";"Sao Paulo";Itu;;BR;25-11-003755;61e64e9f-f32b-4844-9f3f-7fa953cd8c31;-23.2701;-47.3009;"2025-11-02 13:00:00";;0;0;0;0;0;6243761;;;;2025-10-07
"Pre Release";"Pré Release - Geek House Americana";2025-11-02;"GEEK COLLECTIONS HOUSE";"87 RUA MARECHAL FLORIANO PEIXOTO, SP 13465-080, BR";"Sao Paulo";Americana;;BR;25-11-010982;67226dc5-bcef-409f-8367-be380bff87a2;-22.7447;-47.3277;"2025-11-02 10:00:00";;0;0;0;0;0;6237174;;;;2025-10-20
"League Challenge";"Piticas Plaza Sul Challenge TCG 11_2025";2025-11-02;"PITICAS_XP PLAZA SUL";"PRAÇA LEONOR KAUPA, 100 - JARDIM DA SAÚDE, SÃO PAULO - SP, 04151-900, BRAZIL";"Sao Paulo";"Sao Paulo";;BR;25-11-010219;6a706cf8-6a27-44f4-9044-067e21abf896;-23.6197;-46.6268;"2025-11-02 11:30:00";;0;0;0;0;0;2293017;;;;2025-10-19
"Pre Release";"Desafio Estratégico - Fogo Fantasmagórico 2";2025-11-02;"PANDA GAMES BR (NEW)";"43 RUA CORONEL LEME RUA CORONEL LEME, 43, SP 12900-340, BR";"Sao Paulo";"Braganca Paulista";;BR;25-11-011646;71e9bcff-8517-48dd-b6aa-71ee5f346aa3;-22.9575;-46.5421;"2025-11-02 15:00:00";;0;0;0;0;0;6237649;;;;2025-10-24
"Pre Release";"Pré-Realese Gato Guerreiro - Novembro - Parte 01°";2025-11-02;"GATO GUERREIRO BAR E JOGOS";"R. GEN. GLICÉRIO, 4152 - VILA REDENTORA, SÃO JOSÉ DO RIO PRETO - SP, 15015-400, BRAZIL";"Sao Paulo";"Sao Jose do Rio Preto";;BR;25-11-008481;782eeb7e-d6f0-4b25-bfc7-172a563cf161;-20.818;-49.3893;"2025-11-02 14:00:00";;0;0;0;0;0;6242152;;;;2025-10-15
"Pre Release";"ME Fogo Fantasmagórico Pre Lançamento Arena Geek";2025-11-02;"ARENA GEEK";"RUA DR. ARMANDO SALLES DE OLIVEIRA, 138 - BOQUEIRÃO, SANTOS - SP, 11050-070, BRAZIL";"Sao Paulo";Santos;;BR;25-11-009152;80ccce8e-7df2-488a-81cd-eb4d1b4c766f;-23.961;-46.3311;"2025-11-02 17:00:00";;0;0;0;0;0;6240797;;;;2025-10-16
"Pre Release";"Pré-Release Mega Evoluções Fogo Fantasmagórico";2025-11-02;AV.8;"AV. 8, 3 - 4 300 - JARDIM CLARET, RIO CLARO - SP, 13503-210, BRAZIL";"Sao Paulo";"Rio Claro";;BR;25-11-011125;8ab9af66-6f9a-4f29-92f0-c0e632b53586;-22.4065;-47.5611;"2025-11-02 14:00:00";;0;0;0;0;0;6244045;;;;2025-10-22
"Pre Release";"Fogo fantasmagórico";2025-11-02;"EPIC VALE";"AV. DR. ADEMAR DE BARROS, 322 - VILA IGUALDADE, SÃO JOSÉ DOS CAMPOS - SP, 12243-620, BRAZIL";"Sao Paulo";"Sao Jose dos Campos";;BR;25-11-011278;a0315ac9-5312-47eb-952d-b0553f521661;-23.1949;-45.8911;"2025-11-02 11:30:00";;0;0;0;0;0;6242408;;;;2025-10-22
"Pre Release";"Fogo Fantasmagórico Prerelease";2025-11-02;"X1 - ARENA";"R. QUINZE DE NOVEMBRO, 1071 - CENTRO, INDAIATUBA - SP, 13330-070, BRAZIL";"Sao Paulo";Indaiatuba;;BR;25-11-008541;a416c85d-588c-450b-b2f2-5d93d0e39df4;-23.0845;-47.2143;"2025-11-02 13:00:00";;0;0;0;0;0;6241564;;;;2025-10-15
"Pre Release";"Prerelease Fogo Fantasmagórico - Domingo";2025-11-02;"OVERRUN GEEK STORE";"AV. CRISTOVÃO COLOMBO, 1533 - CENTRO, ARARAQUARA - SP, 14801-200, BRAZIL";"Sao Paulo";Araraquara;;BR;25-11-011322;a66c75c3-2b30-4dc7-b992-4683a02f32c9;-21.787;-48.1859;"2025-11-02 10:00:00";;0;0;0;0;0;6242862;;;;2025-10-22
"Pre Release";"Pré Lançamento Fogo Fantasmagôrico";2025-11-02;"BALAIO DE JOGOS";"AV. SÃO VICENTE, 5451 - JARDIM NOEMIA, FRANCA - SP, 14403-720, BRASIL - JARDIM NOEMIA, FRANCA - SP,";"Sao Paulo";Franca;;BR;25-11-004024;b5dbfd74-b4da-4d80-9fbf-8aad7845af85;-20.5609;-47.3716;"2025-11-02 15:00:00";;0;0;0;0;0;6242229;;;;2025-10-07
"Pre Release";"PRÉ LANÇAMENTO - FOGO FANTASMAGÓRICO - #02 - DOMINGO 02/11 -";2025-11-02;XPLACE;"32 R. JORDÂNIA, SP 03543-000, BR";"Sao Paulo";"Sao Paulo";;BR;25-11-011288;c22a7a59-094f-4218-81e5-074a953e006d;-23.5325;-46.5158;"2025-11-02 13:00:00";;0;0;0;0;0;6240069;;;;2025-10-22
"Pre Release";"Pré-lançamento de Megaevolução - Fogo Fantasmagórico";2025-11-02;ITABULEIROS;"AV. DR. EDUARDO COTCHING, 1495 - VILA FORMOSA, SÃO PAULO - SP, 03356-001, BRAZIL";"Sao Paulo";"Sao Paulo";;BR;25-11-003775;cac3c6a6-e313-4bf5-815c-b68f2c87c557;-23.5691;-46.5473;"2025-11-02 14:30:00";;0;0;0;0;0;6239564;;;;2025-10-07
"Pre Release";"PRÉ-LANÇAMENTO: MEGAEVOLUÇÃO - FOGO FANTASMAGÓRICO CASUAL -";2025-11-02;"POLAR JOGOS";"2013 ALAMEDA DOS NHAMBIQUARAS SUBSOLO - COLETIVO GEEK, SP 04090-013, BR";"Sao Paulo";"Sao Paulo";;BR;25-11-003801;cdc1c768-dd8d-41e7-9b46-a9a07997eb84;-23.6147;-46.6663;"2025-11-02 14:00:00";;0;0;0;0;0;6233645;;;;2025-10-07
"Pre Release";"Epic Torneio de Pré-Lançamento - Fogo Fantasmagórico";2025-11-02;"EPIC GAME SÃO PAULO";"R. DA GLÓRIA, 117 - LIBERDADE, SÃO PAULO - SP, 01510-001, BRAZIL";"Sao Paulo";"Sao Paulo";;BR;25-11-004220;d3154c87-2ef4-4cd0-918a-fd0acb697e56;-23.5542;-46.634;"2025-11-02 11:00:00";;0;0;0;0;0;4083208;;;;2025-10-07
"Pre Release";"Fogo Fantasmagorico - Pré Lançamento";2025-11-02;"FLOW GAMES";"RUA DONA GENOVEVA D'ASCOLI, 17 - VILA PRUDENTE, SÃO PAULO - SP, 03132-070, BRAZIL";"Sao Paulo";"Sao Paulo";;BR;25-11-005440;e62245ae-6073-4baa-bb6e-324d8a672b89;-23.5816;-46.5849;"2025-11-02 12:00:00";;0;0;0;0;0;6240671;;;;2025-10-08
"Pre Release";"Torneio de Pré-lançamento Fogo Fantasmagórico Freak Games";2025-11-02;"FREAK GAMES";"R. ALFREDO PUJOL, 545 - LOJA 1 - SANTANA, SÃO PAULO - SP, 02017-000, BRAZIL";"Sao Paulo";"Sao Paulo";;BR;25-11-008399;ecc9ef7f-c02d-4d76-8fe5-11e547d2fad4;-23.5003;-46.6313;"2025-11-02 14:00:00";;0;0;0;0;0;6242651;;;;2025-10-15
"Pre Release";"Pré-Lançamento Fogo Fantasmagórico - Chuck TCG";2025-11-02;"CHUCK TCG";"R. NITERÓI, 78 - CENTRO, SÃO CAETANO DO SUL - SP, 09510-210, BRAZIL";"Sao Paulo";"Sao Caetano do Sul";;BR;25-11-009647;ee710afd-0e42-4c14-b21f-de992a16153b;-23.6147;-46.5704;"2025-11-02 14:00:00";;0;0;0;0;0;4233203;;;;2025-10-17
"Pre Release";"Pre-Release Phantasmal Flames - SALTO GEEK";2025-11-03;"SALTO GEEK";"R. LUÍS DIAS DA SILVA, 239 - VILA TEIXEIRA, SALTO - SP, 13320-354, BRAZIL";"Sao Paulo";Salto;;BR;25-11-010301;2b6b0417-05ab-4774-b3bb-bb04c475a6bf;-23.199;-47.3013;"2025-11-03 19:30:00";;0;0;0;0;0;6240050;;;;2025-10-20
"Pre Release";"Phantasmal Flames Prerelease ArenaRPG";2025-11-03;"ARENA RPG";"R. SILVA JARDIM, 9-84 - VILA SÃO JOÃO DA BOA VISTA, BAURU - SP, 17060-240, BRAZIL";"Sao Paulo";Bauru;;BR;25-11-008307;b1082b80-af62-493a-bb69-e3db80ba25da;-22.3147;-49.0829;"2025-11-03 19:30:00";;0;0;0;0;0;6241714;;;;2025-10-15
"Pre Release";"Torneio de Pré-lançamento Fogo Fantasmagórico Citadel";2025-11-04;CITADEL;"R. AMARAL GAMA, 102 - SANTANA, SÃO PAULO - SP, 02018-000, BRAZIL";"Sao Paulo";"Sao Paulo";;BR;25-11-008401;3693c567-fe49-420f-abf5-d950206267a4;-23.4995;-46.6263;"2025-11-04 20:00:00";;0;0;0;0;0;6240001;;;;2025-10-15
"League Challenge";"League Challenge - Eternatus Card House";2025-11-04;"ETERNATUS CARD HOUSE";"121 R. CAROLINA LUCCA VAZ, SP 13303-519, BR";"Sao Paulo";Itu;;BR;25-11-001434;3a85e0c9-e446-4560-908d-e29305194ae3;-23.2763;-47.285;"2025-11-04 19:30:00";;0;0;0;0;0;6103218;;;;2025-09-25
"Pre Release";"Pré-Lançamento: Megaevolução - Fogo Fantasmagórico";2025-11-04;"LUDENZ GAMES";"R. DOMINGOS DE MORAIS, 348 - SL 06/08 - VILA MARIANA, SÃO PAULO - SP, 04010-000, BRAZIL";"Sao Paulo";"Sao Paulo";;BR;25-11-007878;57c33901-fb37-46c0-bd76-cb23d6508a39;-23.5803;-46.6402;"2025-11-04 19:30:00";;0;0;0;0;0;6245100;;;;2025-10-13
"Pre Release";"Pré Lançamento Fogo Fantasmagôrico";2025-11-04;"FRANCA SHOPPING";"AV. RIO NEGRO, 1100 - JARDIM ROSELANDIA, FRANCA - SP, 14406-005, BRAZIL";"Sao Paulo";Franca;;BR;25-11-004026;89c7e0e0-ae15-4c80-a4ec-5254845f5be3;-20.5609;-47.3716;"2025-11-04 19:00:00";;0;0;0;0;0;6242229;;;;2025-10-07
"Pre Release";"Mega Geek Liga Semanal";2025-11-04;"MEGA GEEK STORE";"R. HEITOR PEIXOTO, 591 - CAMBUCI, SÃO PAULO - SP, 01543-001, BRAZIL";"Sao Paulo";"Sao Paulo";;BR;25-11-008680;96078071-ed74-4d57-883a-0119da19e45e;-23.5754;-46.6214;"2025-11-04 20:00:00";;0;0;0;0;0;6242895;;;;2025-10-15
"Pre Release";"Fogo Fantasmagórico Prerelease - SEVEN SEAS";2025-11-04;"SEVEN SEAS";"AV. JUSCELINO KUBITSCHEK DE OLIVEIRA, 85 - CENTRO, TAUBATÉ - SP, 12010-600, BRAZIL";"Sao Paulo";Taubate;;BR;25-11-005332;fba13cad-3afe-4ce7-b1a2-85a5a5622560;-23.025;-45.5639;"2025-11-04 19:30:00";;0;0;0;0;0;6245352;;;;2025-10-08
"Pre Release";"Pré-Release de Fogo Fantasmagórico";2025-11-05;"GALERIA NERD";"R. JOÃO COLINO, 245 - 4 - CENTRO, OSASCO - SP, 06013-020, BRAZIL";"Sao Paulo";Osasco;;BR;25-11-011529;0075fa9f-3be0-42e3-8f93-606d129b3665;-23.5336;-46.7778;"2025-11-05 20:00:00";;0;0;0;0;0;6245665;;;;2025-10-24
"Pre Release";"Fogo Fantasmagórico Prerelease";2025-11-05;"X1 - ARENA";"R. QUINZE DE NOVEMBRO, 1071 - CENTRO, INDAIATUBA - SP, 13330-070, BRAZIL";"Sao Paulo";Indaiatuba;;BR;25-11-008542;24492c66-ca31-4a31-ba0a-4aa8eef3b229;-23.0845;-47.2143;"2025-11-05 20:00:00";;0;0;0;0;0;6241564;;;;2025-10-15
"Pre Release";"Fogo fantasmagórico (3)";2025-11-05;"EPIC VALE";"AV. DR. ADEMAR DE BARROS, 322 - VILA IGUALDADE, SÃO JOSÉ DOS CAMPOS - SP, 12243-620, BRAZIL";"Sao Paulo";"Sao Jose dos Campos";;BR;25-11-011280;3941de5a-0633-4502-85e5-da492741d9d8;-23.1949;-45.8911;"2025-11-05 11:30:00";;0;0;0;0;0;6242408;;;;2025-10-22
"Pre Release";"Torneio de Pré-lançamento Fogo Fantasmagórico Freak Games";2025-11-05;"FREAK GAMES";"R. ALFREDO PUJOL, 545 - LOJA 1 - SANTANA, SÃO PAULO - SP, 02017-000, BRAZIL";"Sao Paulo";"Sao Paulo";;BR;25-11-008400;6dea7b28-9c37-4708-9275-4393a1b6636a;-23.5003;-46.6313;"2025-11-05 20:00:00";;0;0;0;0;0;6242651;;;;2025-10-15
"Pre Release";"#2 Pre Release Fogo Fantasmagórico - Bolovo Games";2025-11-05;"BOLOVO GAMES";"81 R. MACHADO DE ASSIS, SP 11050-060, BR";"Sao Paulo";Santos;;BR;25-11-009912;9e7e23ed-8d57-4205-b3e7-22568e3056e9;-23.9631;-46.3241;"2025-11-05 19:30:00";;0;0;0;0;0;6237906;;;;2025-10-17
"Pre Release";"Pre Release - Phantasmal Flames";2025-11-05;"PIMP MY DECK HOBBY STORE";"AVENIDA CANDIDO MOTA FILHO, 545 - SÃO FRANCISCO - CENTER SHOP - LOJA 39 - CIDADE SÃO FRANCISCO, SÃO";"Sao Paulo";"Sao Paulo";;BR;25-11-009636;f16b8028-1fe9-4460-afe9-d951d6201bb4;-23.5579;-46.7554;"2025-11-05 19:00:00";;0;0;0;0;0;6241502;;;;2025-10-17
"Pre Release";"Fogo Fantasmagórico Prerelease";2025-11-06;"X1 - ARENA";"R. QUINZE DE NOVEMBRO, 1071 - CENTRO, INDAIATUBA - SP, 13330-070, BRAZIL";"Sao Paulo";Indaiatuba;;BR;25-11-008547;36221d7b-0298-4f4d-aa6d-e99eda4aa85b;-23.0845;-47.2143;"2025-11-06 19:30:00";;0;0;0;0;0;6241564;;;;2025-10-15
"Pre Release";"PHANTASMAL FLAMES PRERELEASE  06112025";2025-11-06;"LEGENDS GAME STORE";"R. CAP. GERALDO, 247 - CENTRO, TAUBATÉ - SP, 12080-340, BRAZIL";"Sao Paulo";Taubate;;BR;25-11-011027;39809460-43d9-407b-83f0-d798b3055a94;-23.0289;-45.5506;"2025-11-06 19:00:00";;0;0;0;0;0;6233889;;;;2025-10-20
"Pre Release";"Epic Torneio de Pré-Lançamento - Fogo Fantasmagórico";2025-11-06;"EPIC GAME SÃO PAULO";"R. DA GLÓRIA, 117 - LIBERDADE, SÃO PAULO - SP, 01510-001, BRAZIL";"Sao Paulo";"Sao Paulo";;BR;25-11-004221;579802f1-194a-4cda-bafd-803f79be6b2f;-23.5542;-46.634;"2025-11-06 19:30:00";;0;0;0;0;0;4083208;;;;2025-10-07
"Pre Release";"Desafio Estratégico - Fogo Fantasmagórico 3";2025-11-06;"PANDA GAMES BR (NEW)";"43 RUA CORONEL LEME RUA CORONEL LEME, 43, SP 12900-340, BR";"Sao Paulo";"Braganca Paulista";;BR;25-11-011647;f7a92f45-4e05-4dd2-97ae-b8aa48e7a242;-22.9575;-46.5421;"2025-11-06 20:00:00";;0;0;0;0;0;6237649;;;;2025-10-24
"Pre Release";"Phantasmal Flames Prerelease - SEVEN SEAS";2025-11-07;"SEVEN SEAS";"AV. JUSCELINO KUBITSCHEK DE OLIVEIRA, 85 - CENTRO, TAUBATÉ - SP, 12010-600, BRAZIL";"Sao Paulo";Taubate;;BR;25-11-005192;04a8169f-62f1-4726-87a7-f733fa9e0b2f;-23.025;-45.5639;"2025-11-07 19:00:00";;0;0;0;0;0;6245352;;;;2025-10-08
"Pre Release";"Pre Release Fogo Fantasmagórico (07/11)";2025-11-07;"LOJA DO KOOPER";"R. NANUQUE, 510 - VILA LEOPOLDINA, SÃO PAULO - SP, 05302-031, BRAZIL";"Sao Paulo";"Sao Paulo";;BR;25-11-010968;1ccad18e-5299-40f9-a041-e30ae2e3d30e;-23.5312;-46.7256;"2025-11-07 19:30:00";;0;0;0;0;0;6243957;;;;2025-10-20
"Pre Release";"[Artplay] Evento de Pré Lançamento - Chamas Fantasmagóricas";2025-11-07;ARTPLAY;"45 R. ONZE DE AGOSTO 2º ANDAR, SP 18270-001, BR";"Sao Paulo";Tatui;;BR;25-11-012018;3c91a779-7218-4d61-844a-d7051ea92f9c;-23.3474;-47.8471;"2025-11-07 19:30:00";;0;0;0;0;0;6239050;;;;2025-10-24
"Pre Release";"Pre lançamento Fogo Fantasmagorico";2025-11-07;"BARÃO GEEK HOUSE";"RUA GERMANO CASELLATTO, 44 - JARDIM SANTA GENEBRA II (BARAO GERALDO), CAMPINAS - SP, 13084-776, BRAZ";"Sao Paulo";Campinas;;BR;25-11-009724;4732ec20-ca83-49a4-a0da-941fc309a20d;-22.83;-47.0774;"2025-11-07 19:30:00";;0;0;0;0;0;6242006;;;;2025-10-17
"Pre Release";"Phantasmal Flames Prerelease Tornament - Eternatus Card Hous";2025-11-07;"ETERNATUS CARD HOUSE";"121 R. CAROLINA LUCCA VAZ, SP 13303-519, BR";"Sao Paulo";Itu;;BR;25-11-011011;4ec594e4-abe4-4b3f-bf91-92c310d145d1;-23.2763;-47.285;"2025-11-07 19:30:00";;0;0;0;0;0;6103218;;;;2025-10-20
"Pre Release";"Pré-Lançamento Fogo Fantasmagórico";2025-11-07;"CHQ JOGOS";"26 R. GALEÃO CARVALHAL JD BELA VISTA, SP 09041-400, BR";"Sao Paulo";"Santo Andre";;BR;25-11-006098;5ef27427-417d-4c0e-9194-e566c38d0971;-23.6683;-46.538;"2025-11-07 19:30:00";;0;0;0;0;0;6242311;;;;2025-10-10
"Pre Release";"PRÉ LANÇAMENTO - FOGO FANTASMAGÓRICO - #03 - SEXTA 07/11 - 1";2025-11-07;XPLACE;"32 R. JORDÂNIA, SP 03543-000, BR";"Sao Paulo";"Sao Paulo";;BR;25-11-011289;839e6ea7-c9f8-4fc0-918e-d75b91075bf8;-23.5325;-46.5158;"2025-11-07 19:00:00";;0;0;0;0;0;6240069;;;;2025-10-22
"Pre Release";"Phantasmal Flames Prerelease";2025-11-07;"CENTER CARDS";"AV. 9 DE JULHO, 2201 - ANHANGABAÚ, JUNDIAÍ - SP, 13208-056, BRAZIL";"Sao Paulo";Americana;;BR;25-11-008769;9a070f9a-d82a-4839-9267-6b52ea816a1a;-22.7317;-47.3403;"2025-11-07 19:30:00";;0;0;0;0;0;6238074;;;;2025-10-15
"Pre Release";"Pre Release Dreamup Phantasm";2025-11-07;"DREAMUP TCG";"RUA LOEFGREN, 927 - VILA MARIANA, SÃO PAULO - SP, 04040-030, BRAZIL";"Sao Paulo";"Sao Paulo";;BR;25-11-006457;b54cf5a5-d35b-4a76-9c9e-93a1b28130c8;-23.5997;-46.6345;"2025-11-07 20:00:00";;0;0;0;0;0;6236778;;;;2025-10-10
"Pre Release";"Desafio Estratégico - Fogo Fantasmagórico 4";2025-11-07;"PANDA GAMES BR (NEW)";"43 RUA CORONEL LEME RUA CORONEL LEME, 43, SP 12900-340, BR";"Sao Paulo";"Braganca Paulista";;BR;25-11-011648;c1d85ade-4676-442d-9d3e-a57f42a36b68;-22.9575;-46.5421;"2025-11-07 20:00:00";;0;0;0;0;0;6237649;;;;2025-10-24
"Pre Release";"Prérelease For Fun";2025-11-07;"RUA JOSÉ LUCAS";"R. JOSÉ LUCAS, 255 - CENTRO, ATIBAIA - SP, 12940-700, BRAZIL";"Sao Paulo";Atibaia;;BR;25-11-003753;c26962f1-ac10-4996-9c9e-b2f35a684b5e;-23.1171;-46.552;"2025-11-07 20:00:00";;0;0;0;0;0;6240615;;;;2025-10-07
"Pre Release";pré;2025-11-07;DG;"90 R. FLORIANO PEIXOTO RUA FLORIANO PEIXOTO, 90 - CENTRO, SP 14870-370, BR";"Sao Paulo";Jaboticabal;;BR;25-11-010108;e3d32a03-cb41-4f20-977d-aed018708e40;-21.2618;-48.3156;"2025-11-07 09:00:00";;0;0;0;0;0;2353031;;;;2025-10-19
"Pre Release";"Pré Release Megaevolução - Fogo Fantasmagórico";2025-11-07;"BIRD GAMES";"RUA CARDEAL ARCOVERDE, 1595 - 1° ANDAR - PINHEIROS, SÃO PAULO - SP, 05407-002, BRAZIL";"Sao Paulo";"Sao Paulo";;BR;25-11-010866;ead3307c-1a33-4716-8f26-459b382b5507;-23.5609;-46.6869;"2025-11-07 19:30:00";;0;0;0;0;0;6244112;;;;2025-10-20
"Pre Release";"PRE Release - Phantasmal Flames. Bazar de Bagdá";2025-11-07;"BAZAR DE BAGDA";"463 R. DR. GABRIEL PIZA, SP 02036-011, BR";"Sao Paulo";"Sao Paulo";;BR;25-11-005823;f825c232-eabb-4ef0-b9d6-c3a4bd893b18;-23.502;-46.6216;"2025-11-07 20:00:00";;0;0;0;0;0;3493201;;;;2025-10-08
"Pre Release";"Pré-lançamento Megaevolução - Fogo Fantasmagórico";2025-11-07;"NEOWALKERS GEEKSTORE";"R. PASSO FUNDO, 87 - JARDIM SÃO JORGE, GUARULHOS - SP, 07111-210, BRAZIL";"Sao Paulo";Guarulhos;;BR;25-11-011696;f83c8c12-1249-4982-9bdd-81bd74aacf55;-23.4609;-46.5229;"2025-11-07 20:00:00";;0;0;0;0;0;6245128;;;;2025-10-24
"Pre Release";"Pré Lançamento Fogo Fantasmagorico CDD 2";2025-11-08;"CAVERNA DO DRAGÃO";"R. GOIÁS, 79 - BOQUEIRÃO, SANTOS - SP, 11050-101, BRAZIL";"Sao Paulo";Santos;;BR;25-11-010938;02f41e90-33df-4cca-8f11-b2fcd1836566;-23.9611;-46.3262;"2025-11-08 15:00:00";;0;0;0;0;0;6243036;;;;2025-10-20
"League Cup";"Piticas Plaza Sul CUP TCG OND_2025";2025-11-08;"PITICAS_XP PLAZA SUL";"PRAÇA LEONOR KAUPA, 100 - JARDIM DA SAÚDE, SÃO PAULO - SP, 04151-900, BRAZIL";"Sao Paulo";"Sao Paulo";;BR;25-11-010223;0af6653b-532c-491c-a9d4-f6aef25dfd2d;-23.6197;-46.6268;"2025-11-08 11:00:00";;0;0;0;0;0;2293017;;;;2025-10-19
"Pre Release";"ME Fogo Fantasmagórico Pre Lançamento Arena Geek";2025-11-08;"ARENA GEEK";"RUA DR. ARMANDO SALLES DE OLIVEIRA, 138 - BOQUEIRÃO, SANTOS - SP, 11050-070, BRAZIL";"Sao Paulo";Santos;;BR;25-11-009171;10946079-e2bf-421f-a7d5-a1f1aa040ac8;-23.961;-46.3311;"2025-11-08 18:00:00";;0;0;0;0;0;6240797;;;;2025-10-16
"League Cup";"Mineral Games League CUP";2025-11-08;"MINERAL GAMES";"40 R. JOSÉ DE OLIVEIRA GOMES, SP 08561-300, BR";"Sao Paulo";Poa;;BR;25-11-009657;1239346b-d7d6-40c9-be3a-3b7e8996b45f;-23.5258;-46.3429;"2025-11-08 11:00:00";;0;0;0;0;0;6241449;;;;2025-10-17
"Pre Release";ICJ;2025-11-08;"INSERT COIN JOGOS";"13 DE MAIO, 673 - SALA 4 - CENTRO, SÃO JOSÉ DO RIO PARDO - SP, 13720-000, BRAZIL";"Sao Paulo";"Sao Jose do Rio Pardo";;BR;25-11-011098;256d2e4d-2cf3-4c52-96e1-a094ebf0441b;-21.5988;-46.8916;"2025-11-08 14:00:00";;0;0;0;0;0;6244610;;;;2025-10-22
"Pre Release";"PRE Release - Phantasmal Flames. Bazar de Bagdá";2025-11-08;"BAZAR DE BAGDA";"463 R. DR. GABRIEL PIZA, SP 02036-011, BR";"Sao Paulo";"Sao Paulo";;BR;25-11-005845;286d2a7d-dcfe-4b3b-891f-83dd9abb9249;-23.502;-46.6216;"2025-11-08 15:00:00";;0;0;0;0;0;3493201;;;;2025-10-08
"Pre Release";"Pre Release Fogo Fantasmagórico (08/11)";2025-11-08;"LOJA DO KOOPER";"R. NANUQUE, 510 - VILA LEOPOLDINA, SÃO PAULO - SP, 05302-031, BRAZIL";"Sao Paulo";"Sao Paulo";;BR;25-11-010969;2c8aceeb-243a-4588-9ca2-84b93b0e75a0;-23.5312;-46.7256;"2025-11-08 14:00:00";;0;0;0;0;0;6243957;;;;2025-10-20
"Pre Release";"PRÉ LANÇAMENTO - FOGO FANTASMAGÓRICO";2025-11-08;PRIMOCARDS;"1374 AVENIDA PROF. HENRIQUE DA M. F. JR., SP 13660-136, BR";"Sao Paulo";"Porto Ferreira";;BR;25-11-011110;2ebd9bd0-0726-4bb4-aa47-f4ea92029eb8;-21.8639;-47.4877;"2025-11-08 09:30:00";;0;0;0;0;0;6240856;;;;2025-10-22
"Pre Release";"PRE RELEASE GODS GEEk";2025-11-08;GODS;"R. PREF. JUSTINO PAIXÃO - CENTRO, SANTO ANDRÉ - SP, 09020-130, BRAZIL";"Sao Paulo";"Santo Andre";;BR;25-11-005056;31148ba5-417e-44a3-b480-cc1699a84eeb;-23.6599;-46.5291;"2025-11-08 13:00:00";;0;0;0;0;0;6242821;;;;2025-10-07
"Pre Release";"PRÉ-LANÇAMENTO: MEGAEVOLUÇÃO - FOGO FANTASMAGÓRICO THE LAST";2025-11-08;"POLAR JOGOS";"2013 ALAMEDA DOS NHAMBIQUARAS SUBSOLO - COLETIVO GEEK, SP 04090-013, BR";"Sao Paulo";"Sao Paulo";;BR;25-11-003806;3453b792-e569-47b4-9b5b-4813214ee29d;-23.6147;-46.6663;"2025-11-08 14:00:00";;0;0;0;0;0;6233645;;;;2025-10-07
"Pre Release";"Prerelease Fogo Fantasmagórico - Sábado";2025-11-08;"OVERRUN GEEK STORE";"AV. CRISTOVÃO COLOMBO, 1533 - CENTRO, ARARAQUARA - SP, 14801-200, BRAZIL";"Sao Paulo";Araraquara;;BR;25-11-005423;37f4cab0-71b0-4372-973c-7cd6113c4a5e;-21.787;-48.1859;"2025-11-08 10:00:00";;0;0;0;0;0;6242862;;;;2025-10-08
"Pre Release";"Pré Release Megaevolução Fogo Fantasmagórico dia2";2025-11-08;GENZAI;"84 R. RUBIÃO JÚNIOR LOJA 40, SP 12210-180, BR";"Sao Paulo";"Sao Jose dos Campos";;BR;25-11-005713;3ddc8626-616e-47be-8377-8313327d2130;-23.1845;-45.8863;"2025-11-08 10:00:00";;0;0;0;0;0;6163210;;;;2025-10-08
"Pre Release";"TABERNA GAMES - PRÉ - Phantasmal Flames Prerelease";2025-11-08;"TABERNA GAMES - LOJA";"R. RUI BARBOSA, 351 - RIBEIRO, LINS - SP, 16401-040, BRAZIL";"Sao Paulo";Lins;;BR;25-11-004604;50e82193-3396-48ad-b150-e69666b271bb;-21.6698;-49.7453;"2025-11-08 15:00:00";;0;0;0;0;0;6243561;;;;2025-10-05
"Pre Release";"Torneio de Pré-lançamento Fogo Fantasmagórico Citadel";2025-11-08;CITADEL;"R. AMARAL GAMA, 102 - SANTANA, SÃO PAULO - SP, 02018-000, BRAZIL";"Sao Paulo";"Sao Paulo";;BR;25-11-009687;62017203-1b98-4d9b-bca7-f78b8c546683;-23.4995;-46.6263;"2025-11-08 14:00:00";;0;0;0;0;0;6240001;;;;2025-10-17
"League Cup";"League Cup - Deckmaster Games";2025-11-08;"DECKMASTER GAMES";"1617 R. BERNARDINO DE CAMPOS, SP 14020-093, BR";"Sao Paulo";"Ribeirao Preto";;BR;25-11-010936;6ca9763f-bab7-4dc2-81d6-967d855e286e;-21.189;-47.8035;"2025-11-08 10:00:00";;0;0;0;0;0;2583202;;;;2025-10-20
"Pre Release";"Pre Lancamento 08-11-25";2025-11-08;"LENDÁRIO CARD GAMES";"AV. CELSO GARCIA, 4367 - TATUAPÉ, SÃO PAULO - SP, 03063-000, BRAZIL";"Sao Paulo";"Sao Paulo";;BR;25-11-009060;7178d4e0-0df4-4f0a-a91e-43d3134b33da;-23.5354;-46.5703;"2025-11-08 14:00:00";;0;0;0;0;0;6245402;;;;2025-10-16
"Pre Release";"PRÉ-LANÇAMENTO FOGO FANTASMAGÓRICO";2025-11-08;"RAYEARTH GAMES";"1612 AV. DEP. DANTE DELMANTO, SP 18608-393, BR";"Sao Paulo";Botucatu;;BR;25-11-005839;76d4e731-a781-43d1-9b40-f7841437c4a7;-22.8713;-48.4485;"2025-11-08 13:00:00";;0;0;0;0;0;6237633;;;;2025-10-08
"Pre Release";"[Artplay] Pré Lançamento Fogo Fantasmagórico";2025-11-08;ARTPLAY;"45 R. ONZE DE AGOSTO 2º ANDAR, SP 18270-001, BR";"Sao Paulo";Tatui;;BR;25-11-008552;7c402ed0-7a81-465d-9ec7-34f906b128c0;-23.3474;-47.8471;"2025-11-08 15:30:00";;0;0;0;0;0;6239050;;;;2025-10-15
"Pre Release";"#3 Pre Release Fogo Fantasmagórico - Bolovo Games";2025-11-08;"BOLOVO GAMES";"81 R. MACHADO DE ASSIS, SP 11050-060, BR";"Sao Paulo";Santos;;BR;25-11-009919;816e81a1-95b7-40ac-b60f-17002f49d64a;-23.9631;-46.3241;"2025-11-08 15:30:00";;0;0;0;0;0;6237906;;;;2025-10-17
"Pre Release";"Pré-Lançamento de Fogo Fantasmagórico";2025-11-08;"SALVAIA STORE";"R. CONSELHEIRO FURTADO, 692 - SALA 4 - LIBERDADE, SÃO PAULO - SP, 01511-000, BRAZIL";"Sao Paulo";"Sao Paulo";;BR;25-11-009362;89ebfb76-b4c4-41fd-bbcb-cd5bbdab2171;-23.5591;-46.633;"2025-11-08 13:00:00";;0;0;0;0;0;6242920;;;;2025-10-16
"Pre Release";"Epic Level - Prerelease - Fogo Fantasmagórico";2025-11-08;"EPIC LEVEL";"1929 R. PEDRO AMARAL BOA VISTA, SP 15025-043, BR";"Sao Paulo";"Sao Jose do Rio Preto";;BR;25-11-008758;8b520f1a-d192-4555-b1cb-67a0732d9606;-20.8018;-49.3852;"2025-11-08 14:30:00";;0;0;0;0;0;6236575;;;;2025-10-15
"Pre Release";"Pré-lançamento de Megaevolução: Fogo Fantasmagórico";2025-11-08;"KEDGE CARD GAMES";"AV. ITALO ADAMI, 585 - 1º ANDAR, SALA 7 - VILA ZEFERINA, ITAQUAQUECETUBA - SP, 08573-000, BRAZIL";"Sao Paulo";Itaquaquecetuba;;BR;25-11-004422;98befef3-06d2-4d80-ae30-1086d796fb0a;-23.4855;-46.3496;"2025-11-08 14:00:00";;0;0;0;0;0;6244391;;;;2025-10-07
"Pre Release";"pre-release Fogo Fantasmagórico Coliseu 08-11-2025";2025-11-08;"COLISEU TCG";"R. SÃO JOSÉ, 16 - VILA PARAISO, MOGI GUAÇU - SP, 13844-000, BRAZIL";"Sao Paulo";"Mogi Guacu";;BR;25-11-008310;994a4d2a-0cfe-4514-ab3a-4c73e16a8119;-22.3742;-46.9416;"2025-11-08 13:30:00";;0;0;0;0;0;6241985;;;;2025-10-15
"League Challenge";"dg challenge";2025-11-08;DG;"90 R. FLORIANO PEIXOTO RUA FLORIANO PEIXOTO, 90 - CENTRO, SP 14870-370, BR";"Sao Paulo";Jaboticabal;;BR;25-11-010105;9fc56855-fc99-4a90-bbd1-54d5eeda6bb2;-21.2618;-48.3156;"2025-11-08 09:00:00";;0;0;0;0;0;2353031;;;;2025-10-19
"Pre Release";"Pré lançamento de Fogo Fantasmagórico";2025-11-08;"LETRAS EM FESTA";"707 AV. DEZENOVE DE MAIO CENTRO, SP 11250-000, BR";"Sao Paulo";Bertioga;;BR;25-11-004042;a029ab4c-4696-4f77-82ea-fe967b3ae8f9;-23.832;-46.1351;"2025-11-08 12:00:00";;0;0;0;0;0;2413111;;;;2025-10-07
"Pre Release";"Pré Lançamento Fogo Fantasmagôrico";2025-11-08;"BALAIO DE JOGOS";"AV. SÃO VICENTE, 5451 - JARDIM NOEMIA, FRANCA - SP, 14403-720, BRASIL - JARDIM NOEMIA, FRANCA - SP,";"Sao Paulo";Franca;;BR;25-11-004027;a0cddf3d-650c-4d8a-ac4b-a14679f65dcd;-20.5609;-47.3716;"2025-11-08 13:00:00";;0;0;0;0;0;6242229;;;;2025-10-07
"Pre Release";"Pre Release - Fogo Fantasmagórico - SÁBADO";2025-11-08;"USA TRENDIES";"TV. DR. RODRIGO ANTÔNIO, 25 - VILA ALPINA, SANTO ANDRÉ - SP, 09090-750, BRAZIL";"Sao Paulo";"Santo Andre";;BR;25-11-003854;a6dba43f-f3f9-468b-a8cc-2bd5d97047aa;-23.6537;-46.5394;"2025-11-08 14:30:00";;0;0;0;0;0;6243697;;;;2025-10-07
"Pre Release";"Day 2 Phantasmal Flames Prerelease";2025-11-08;"CENTER CARDS";"AV. 9 DE JULHO, 2201 - ANHANGABAÚ, JUNDIAÍ - SP, 13208-056, BRAZIL";"Sao Paulo";Americana;;BR;25-11-008772;a7fc014c-f1fd-4a47-a017-30cb5596fe2d;-22.7317;-47.3403;"2025-11-08 14:00:00";;0;0;0;0;0;6238074;;;;2025-10-15
"Pre Release";"Phantasmal Flames Pré lançamento";2025-11-08;"FLOW GEEK STORE";"ESTR. DOS ALVARENGAS, 2550 - ASSUNÇÃO, SÃO BERNARDO DO CAMPO - SP, 09850-550, BRAZIL";"Sao Paulo";"Sao Bernardo do Campo";;BR;25-11-005741;bd947ab1-5dc4-491e-a197-d38396462c3d;-23.7278;-46.577;"2025-11-08 15:00:00";;0;0;0;0;0;6243409;;;;2025-10-08
"Pre Release";"Phantasmal Flames Prerelease Tornament - Eternatus Card Hous";2025-11-08;"ETERNATUS CARD HOUSE";"121 R. CAROLINA LUCCA VAZ, SP 13303-519, BR";"Sao Paulo";Itu;;BR;25-11-011013;c08bf219-34db-4e11-b7bf-dee1579dcc1f;-23.2763;-47.285;"2025-11-08 10:30:00";;0;0;0;0;0;6103218;;;;2025-10-20
"Pre Release";"Desafio Estratégico - Fogo Fantasmagórico 5";2025-11-08;"PANDA GAMES BR (NEW)";"43 RUA CORONEL LEME RUA CORONEL LEME, 43, SP 12900-340, BR";"Sao Paulo";"Braganca Paulista";;BR;25-11-011649;c0b1ceda-abcc-4dd3-84a6-507b8817ecb1;-22.9575;-46.5421;"2025-11-08 20:00:00";;0;0;0;0;0;6237649;;;;2025-10-24
"Pre Release";"Torneio de Pré-lançamento de Fogo Fantasmagórico Tamer Shop";2025-11-08;"TAMER SHOP HOBBY STORE";"R. IPANEMA, 478 - BRÁS, SÃO PAULO - SP, 03164-200, BRAZIL";"Sao Paulo";"Sao Paulo";;BR;25-11-011042;ca746f1c-589d-443e-b303-543ba4ec9bc4;-23.5476;-46.6075;"2025-11-08 16:00:00";;0;0;0;0;0;6244494;;;;2025-10-22
"League Challenge";"2° LEAGUE CHALLENGE POKÉMON TCG - Patinhas Geek";2025-11-08;"PATINHAS GEEK";"AV. PROF. CHICO SANTOS - ITAGUÁ, UBATUBA - SP, 11689-010, BRAZIL";"Sao Paulo";Ubatuba;;BR;25-11-011913;d5535ef2-3bd9-4367-b592-35061faec5c5;-23.4487;-45.0719;"2025-11-08 13:00:00";;0;0;0;0;0;6244941;;;;2025-10-23
"Pre Release";"PRÉ LANÇAMENTO - FOGO FANTASMAGÓRICO - #04 - SÁBADO 08/11 -";2025-11-08;XPLACE;"32 R. JORDÂNIA, SP 03543-000, BR";"Sao Paulo";"Sao Paulo";;BR;25-11-011292;d5d15ce7-1b86-4022-9584-6d89afb48693;-23.5325;-46.5158;"2025-11-08 13:00:00";;0;0;0;0;0;6240069;;;;2025-10-22
"League Challenge";"Desafio da Liga novembro 2025";2025-11-08;"LETRAS EM FESTA";"707 AV. DEZENOVE DE MAIO CENTRO, SP 11250-000, BR";"Sao Paulo";Bertioga;;BR;25-11-001104;dba02557-cc1f-4756-9eb3-cc7aca8c27a6;-23.832;-46.1351;"2025-11-08 15:00:00";;0;0;0;0;0;2413111;;;;2025-09-22
"Pre Release";"Prerelease de Fogo Fantasmagórico - CCG";2025-11-08;"CITY CLASS GAMES";"80 R. INÁCIA OLÍMPIA DE MORÃES, SP 06296-110, BR";"Sao Paulo";"Sao Paulo";;BR;25-11-011918;f04197dc-6b46-4f31-b7c8-71a651f75593;-23.5191;-46.7537;"2025-11-08 14:00:00";;0;0;0;0;0;6240181;;;;2025-10-24
"Pre Release";"Pré-lançamento do Megaevolução - Fogo Fantasmagórico.";2025-11-08;"O PORTAL GEEK STORE";"AV. ROLAND GARROS, 782 - JARDIM BRASIL, SÃO PAULO - SP, 02235-000, BRAZIL";"Sao Paulo";"Sao Paulo";;BR;25-11-011155;f4b2f906-2fed-4479-b9f4-18ee50a86f43;-23.4801;-46.5801;"2025-11-08 12:00:00";;0;0;0;0;0;6244087;;;;2025-10-22
"League Challenge";"League Challange";2025-11-08;"LOJA FARAWAY";"60 AV. BERNARDINO DE CAMPOS CENTRO, SP 12600-200, BR";"Sao Paulo";Lorena;;BR;25-11-003864;f5e2736a-e7eb-401d-94ea-5b51dcbe54a0;-22.7302;-45.1232;"2025-11-08 02:30:00";;0;0;0;0;0;6239316;;;;2025-10-07
"Pre Release";"Pré-Lançamento Phantasmal Flames";2025-11-08;"DUNGEON GAMES STORE";"R. DUQUE DE CAXIAS, 317 - LOJA 4, 2º SUBSOLO - CENTRO, BARUERI - SP, 06401-010, BRAZIL";"Sao Paulo";Barueri;;BR;25-11-008885;ff5dce65-81e3-411f-b4ef-1b7c4d7a5687;-23.5091;-46.8739;"2025-11-08 14:00:00";;0;0;0;0;0;6244103;;;;2025-10-16
"Pre Release";"Torneio de Pré-Lançamento MegaEvolução Fogo Fantasmagórico";2025-11-09;"VERSUS GAME CLUB";"AV. JUSCELINO KUBITSCHEK DE OLIVEIRA, 441 - JARDIM DOS CISNES, SÃO BENTO DO SAPUCAÍ - SP, 12490-000,";"Sao Paulo";"Sao Bento do Sapucai";;BR;25-11-010140;12a58dbc-374c-460a-b147-4ecf063e25e4;-22.6859;-45.731;"2025-11-09 15:00:00";;0;0;0;0;0;6242789;;;;2025-10-19
"League Challenge";"League Challenge TCG Nov Arena Geek 09.11.25";2025-11-09;"ARENA GEEK";"RUA DR. ARMANDO SALLES DE OLIVEIRA, 138 - BOQUEIRÃO, SANTOS - SP, 11050-070, BRAZIL";"Sao Paulo";Santos;;BR;25-11-011984;3182ed60-7090-4dd8-bc1e-4c365ddfffe7;-23.961;-46.3311;"2025-11-09 14:00:00";;0;0;0;0;0;6240797;;;;2025-10-24
"Pre Release";"Evento de Lançamento Phantasmal Flames Mian Deck";2025-11-09;"MAIN DECK";"R. GALVÃO BUENO, 714 - 2º ANDAR - LIBERDADE, SÃO PAULO - SP, 01506-000, BRAZIL";"Sao Paulo";"Sao Paulo";;BR;25-11-008827;33055650-9bf8-48e1-9482-de92b2786184;-23.562;-46.6349;"2025-11-09 11:00:00";;0;0;0;0;0;6243756;;;;2025-10-16
"League Challenge";"Challenger Novembro - Esquenta LAIC";2025-11-09;"FLOW GAMES";"RUA DONA GENOVEVA D'ASCOLI, 17 - VILA PRUDENTE, SÃO PAULO - SP, 03132-070, BRAZIL";"Sao Paulo";"Sao Paulo";;BR;25-11-005451;3f542735-727e-4b80-b605-f2266f09dbfe;-23.5816;-46.5849;"2025-11-09 14:00:00";;0;0;0;0;0;6240671;;;;2025-10-08
"Pre Release";"Pré Akagami Phantasmal";2025-11-09;AKAGAMI;"R. ANTÔNIO CARLOS, 686 - CONSOLAÇÃO, SÃO PAULO - SP, 01309-010, BRAZIL";"Sao Paulo";"Sao Paulo";;BR;25-11-006068;66f90de9-4829-49cb-a7c3-1a439b85c0e9;-23.5542;-46.6605;"2025-11-09 12:00:00";;0;0;0;0;0;6244816;;;;2025-10-10
"Pre Release";"ME Fogo Fantasmagórico Pre Lançamento Arena Geek";2025-11-09;"ARENA GEEK";"RUA DR. ARMANDO SALLES DE OLIVEIRA, 138 - BOQUEIRÃO, SANTOS - SP, 11050-070, BRAZIL";"Sao Paulo";Santos;;BR;25-11-009172;74cf8c09-dd60-42b6-8eec-262db5974f65;-23.961;-46.3311;"2025-11-09 17:00:00";;0;0;0;0;0;6240797;;;;2025-10-16
"League Challenge";"Challenger Lendario  TCG 09-11-25";2025-11-09;"LENDÁRIO CARD GAMES";"AV. CELSO GARCIA, 4367 - TATUAPÉ, SÃO PAULO - SP, 03063-000, BRAZIL";"Sao Paulo";"Sao Paulo";;BR;25-11-002467;7b732543-442d-404c-be91-7bcefd87d9f3;-23.5354;-46.5703;"2025-11-09 14:00:00";;0;0;0;0;0;6245402;;;;2025-10-01
"Pre Release";"Prerelease Fogo Fantasmagórico - Domingo";2025-11-09;"OVERRUN GEEK STORE";"AV. CRISTOVÃO COLOMBO, 1533 - CENTRO, ARARAQUARA - SP, 14801-200, BRAZIL";"Sao Paulo";Araraquara;;BR;25-11-005447;7db174c3-a460-4270-b3f9-430e61bc4bef;-21.787;-48.1859;"2025-11-09 10:00:00";;0;0;0;0;0;6242862;;;;2025-10-08
"League Challenge";"Desafios TCG O PORTAL GEEK STORE - NOV";2025-11-09;"O PORTAL GEEK STORE";"AV. ROLAND GARROS, 782 - JARDIM BRASIL, SÃO PAULO - SP, 02235-000, BRAZIL";"Sao Paulo";"Sao Paulo";;BR;25-11-002861;826c51e8-56f8-40dd-9c8c-5c1b0f5faaa8;-23.4801;-46.5801;"2025-11-09 12:00:00";;0;0;0;0;0;6244087;;;;2025-10-02
"League Challenge";"League Challenge 2026 - Novembro";2025-11-09;"BARDOS GAME STORE";"466 R. CEL. ERNESTO DE OLIVEIRA, SP 13870-249, BR";"Sao Paulo";"Sao Joao da Boa Vista";;BR;25-11-003602;95048ff6-5b55-4c0d-ae15-43ce59879d85;-21.9799;-46.7958;"2025-11-09 10:00:00";;0;0;0;0;0;6238556;;;;2025-10-07
"Pre Release";"Pré Lançamento Fogo Fantasmagôrico";2025-11-09;"BALAIO DE JOGOS";"AV. SÃO VICENTE, 5451 - JARDIM NOEMIA, FRANCA - SP, 14403-720, BRASIL - JARDIM NOEMIA, FRANCA - SP,";"Sao Paulo";Franca;;BR;25-11-004031;9ef89da0-2f05-47e1-ba9d-3a3046653680;-20.5609;-47.3716;"2025-11-09 15:00:00";;0;0;0;0;0;6242229;;;;2025-10-07
"Pre Release";"Pré lançamento Phantasmal Flames";2025-11-09;"FLOW GEEK STORE";"ESTR. DOS ALVARENGAS, 2550 - ASSUNÇÃO, SÃO BERNARDO DO CAMPO - SP, 09850-550, BRAZIL";"Sao Paulo";"Sao Bernardo do Campo";;BR;25-11-010394;9f39bbda-f9c3-456d-bd6a-636b5bb65a4b;-23.7278;-46.577;"2025-11-09 15:00:00";;0;0;0;0;0;6243409;;;;2025-10-19
"Pre Release";"Click Cards & Games - Pré-Release Fogo Fantasmagórico";2025-11-09;"CLICK CARDS & GAMES";"20 PRAÇA JOÃO PESSOA ANDAR 01, SALA 01, SP 08674-040, BR";"Sao Paulo";Suzano;;BR;25-11-011785;b38c8f6e-6182-4993-aa4b-1cf68d4742b0;-23.5354;-46.3097;"2025-11-09 11:00:00";;0;0;0;0;0;6240565;;;;2025-10-24
"Pre Release";"ESTUDIO VICK - PRÉ LANÇAMENTO FOGO FANTASMAGÓRICO";2025-11-09;"ESTÚDIO VICK";"R. CAMPOS SALES, 159 - CENTRO, TAMBAÚ - SP, 13710-000, BRAZIL";"Sao Paulo";Tambau;;BR;25-11-005708;b7d34dcd-5396-41ac-8eac-b4ac0322ec2e;-21.7065;-47.2738;"2025-11-09 10:00:00";;0;0;0;0;0;6241561;;;;2025-10-08
"League Challenge";"CHALLENGE RESERVA";2025-11-09;"RESERVA GAME STORE";"R. FREI GASPAR, 626 - MOOCA, SÃO PAULO - SP, 03164-100, BRAZIL";"Sao Paulo";"Sao Paulo";;BR;25-11-009695;bd2932a2-4403-4dd3-8675-242b2b033598;-23.548;-46.6055;"2025-11-09 00:00:00";;0;0;0;0;0;6245113;;;;2025-10-17
"League Cup";"League Cup geek House Americana";2025-11-09;"GEEK COLLECTIONS HOUSE";"R. MAL. FLORIANO PEIXOTO, 87 - CENTRO, AMERICANA - SP, 13465-080, BRAZIL";"Sao Paulo";Americana;;BR;25-11-012276;d487ea43-9e32-44c3-b573-292d0559101a;-22.7447;-47.3277;"2025-11-09 10:00:00";;0;0;0;0;0;6237174;;;;2025-10-24
"League Cup";"Copa da Liga";2025-11-09;"E. E. PROFESSOR ARCHIMEDES BAVA";"R. WASHINGTON CURVELO DE AGUIAR, SP 11250-000, BR";"Sao Paulo";Bertioga;;BR;25-11-001103;d4dc2810-b43d-4cb4-84d2-eca03b845f2d;-23.832;-46.1351;"2025-11-09 10:00:00";;0;0;0;0;0;2413111;;;;2025-09-22
"Pre Release";"Pré-Realese Gato Guerreiro - Novembro - Parte 02°";2025-11-09;"GATO GUERREIRO BAR E JOGOS";"R. GEN. GLICÉRIO, 4152 - VILA REDENTORA, SÃO JOSÉ DO RIO PRETO - SP, 15015-400, BRAZIL";"Sao Paulo";"Sao Jose do Rio Preto";;BR;25-11-008482;d4ede91c-3cfc-450b-90fe-eddb993d882d;-20.818;-49.3893;"2025-11-09 14:00:00";;0;0;0;0;0;6242152;;;;2025-10-15
"League Challenge";"TCG LEAGUE CHALLENGE (NOVEMBRO) - POLAR JOGOS";2025-11-09;"POLAR JOGOS";"2013 ALAMEDA DOS NHAMBIQUARAS SUBSOLO - COLETIVO GEEK, SP 04090-013, BR";"Sao Paulo";"Sao Paulo";;BR;25-11-000378;e6c3a4ed-3bf0-447e-a0ce-a6600a71e3fd;-23.6147;-46.6663;"2025-11-09 11:00:00";;0;0;0;0;0;6233645;;;;2025-09-17
"League Cup";"League CUP";2025-11-09;AV.8;"AV. 8, 3 - 4 300 - JARDIM CLARET, RIO CLARO - SP, 13503-210, BRAZIL";"Sao Paulo";"Rio Claro";;BR;25-11-002876;e970d76d-c43f-413f-95d1-27cf0528b261;-22.4065;-47.5611;"2025-11-09 10:00:00";;0;0;0;0;0;6244045;;;;2025-10-02
"League Challenge";"LEAGUE CHALLENGE NOVEMBRO";2025-11-09;"RAYEARTH GAMES";"1612 AV. DEP. DANTE DELMANTO, SP 18608-393, BR";"Sao Paulo";Botucatu;;BR;25-11-005836;f28345fe-a743-4986-a543-80d01eb227aa;-22.8713;-48.4485;"2025-11-09 10:00:00";;0;0;0;0;0;6237633;;;;2025-10-08
"Pre Release";"Meruru Liberdad Phantasmal Flames MEGA Prerelease";2025-11-09;"MERURU LIBERDADE";"526 R. GALVÃO BUENO 526, SP 01506-000, BR";"Sao Paulo";"Sao Paulo";;BR;25-11-009677;f72648e2-48ed-40ff-a4ce-35e370cbe5eb;-23.5603;-46.635;"2025-11-09 11:00:00";;0;0;0;0;0;6239043;;;;2025-10-17
"League Challenge";"LEAGUE CHALLENGE NOVEMBRO FLOW GEEKs";2025-11-11;"FLOW GEEK STORE";"ESTR. DOS ALVARENGAS, 2550 - ASSUNÇÃO, SÃO BERNARDO DO CAMPO - SP, 09850-550, BRAZIL";"Sao Paulo";"Sao Bernardo do Campo";;BR;25-11-000699;f444bc27-ec4a-4318-bbe1-4afd4bee98ef;-23.7278;-46.577;"2025-11-11 19:30:00";;0;0;0;0;0;6243409;;;;2025-09-18
"League Challenge";"League Challenge NW (Novembro/2025)";2025-11-12;"NEOWALKERS GEEKSTORE";"R. PASSO FUNDO, 87 - JARDIM SÃO JORGE, GUARULHOS - SP, 07111-210, BRAZIL";"Sao Paulo";Guarulhos;;BR;25-11-000413;77517d11-02ff-4081-b40f-66013b4fe07e;-23.4609;-46.5229;"2025-11-12 20:00:00";;0;0;0;0;0;6245128;;;;2025-09-17
"League Challenge";"League Challenge Legacy tcg 19_11_2025";2025-11-12;"LEGACY TCG";"R. MARIA JOSÉ, QUADRA 8 - VILA SANTA TEREZA, BAURU - SP, 17012-160, BRAZIL";"Sao Paulo";Bauru;;BR;25-11-000402;8bf79684-baa4-4a33-9d7e-4e5b24dace3d;-22.3311;-49.0631;"2025-11-12 19:30:00";;0;0;0;0;0;6238617;;;;2025-09-17
"League Challenge";"TCG League Challenge Novembro - Pimp my Deck";2025-11-12;"PIMP MY DECK";"AV. DR. CÂNDIDO MOTTA FILHO, 545 - 39 - JARDIM GUEDALA, SÃO PAULO - SP, 05351-000, BRAZIL";"Sao Paulo";"Sao Paulo";;BR;25-11-010861;bc1adc77-34cc-4039-b1f3-c858fd44d015;-23.5579;-46.7554;"2025-11-12 19:00:00";;0;0;0;0;0;6241502;;;;2025-10-20
"League Challenge";"League Challenge Novembro - Jackpot Jogos";2025-11-13;JACKPOTJOGOS;"1140 RUA DOM PEDRO II, SP 13560-235, BR";"Sao Paulo";"Sao Carlos";;BR;25-11-001655;424a8d09-b3bc-442c-b397-f8d49ce2e089;-22.0148;-47.8878;"2025-11-13 19:30:00";;0;0;0;0;0;6238838;;;;2025-09-25
"League Challenge";"Challenge de Novembro";2025-11-13;"A GUILDA COLECIONÁVEIS";"1008 R. BERNARDINO DE CAMPOS, SP 13419-100, BR";"Sao Paulo";Piracicaba;;BR;25-11-008243;5c7b35a1-deb7-4b2d-88b2-38ce2c5664ec;-22.7195;-47.6481;"2025-11-13 19:00:00";;0;0;0;0;0;672927;;;;2025-10-15
"League Challenge";"Artplay League Challenge 11.2025";2025-11-13;ARTPLAY;"45 R. ONZE DE AGOSTO 2º ANDAR, SP 18270-001, BR";"Sao Paulo";Tatui;;BR;25-11-001508;afe8c618-39e3-49c7-961c-49207b7e5b92;-23.3474;-47.8471;"2025-11-13 19:00:00";;0;0;0;0;0;6239050;;;;2025-09-25
"League Challenge";"Challenge X1 Arena";2025-11-14;"X1 - ARENA";"R. QUINZE DE NOVEMBRO, 1071 - CENTRO, INDAIATUBA - SP, 13330-070, BRAZIL";"Sao Paulo";Indaiatuba;;BR;25-11-001589;abbc1b03-d2b1-4f7c-a58f-f6e39083b0e4;-23.0845;-47.2143;"2025-11-14 19:30:00";;0;0;0;0;0;6241564;;;;2025-09-25
"League Challenge";"League Challenge Novembro - Bird Games - 28/11";2025-11-15;"BIRD GAMES";"RUA CARDEAL ARCOVERDE, 1595 - 1° ANDAR - PINHEIROS, SÃO PAULO - SP, 05407-002, BRAZIL";"Sao Paulo";"Sao Paulo";;BR;25-11-001052;06f7b695-4a87-4c7d-a8eb-140f540723ae;-23.5609;-46.6869;"2025-11-15 11:00:00";;0;0;0;0;0;6244112;;;;2025-09-22
"League Cup";"CUP Barão Geek House";2025-11-15;"BARÃO GEEK HOUSE";"RUA GERMANO CASELLATTO, 44 - JARDIM SANTA GENEBRA II (BARAO GERALDO), CAMPINAS - SP, 13084-776, BRAZ";"Sao Paulo";Campinas;;BR;25-11-002828;14471b0e-7be5-4427-a292-8f108c5938b8;-22.83;-47.0774;"2025-11-15 10:00:00";;0;0;0;0;0;6242006;;;;2025-10-02
"League Cup";"Pokemon Imperium Play! CUP Novembro";2025-11-15;"IMPEIRUM TCG";"R. PREF. LESSA, 456-506 - CENTRO, ESPÍRITO SANTO DO PINHAL - SP, 13990-000, BRAZIL";"Sao Paulo";"Espirito Santo do Pinhal";;BR;25-11-001337;3190c6c0-8bd1-4d30-8017-1796fd129022;-22.1995;-46.7474;"2025-11-15 10:00:00";;0;0;0;0;0;6242142;;;;2025-09-23
"League Challenge";"TCG Challenge de Novembro Freak Games";2025-11-15;"FREAK GAMES";"R. ALFREDO PUJOL, 545 - LOJA 1 - SANTANA, SÃO PAULO - SP, 02017-000, BRAZIL";"Sao Paulo";"Sao Paulo";;BR;25-11-009385;4ad53d7f-735f-4944-b259-e5e31d70520f;-23.5003;-46.6313;"2025-11-15 13:00:00";;0;0;0;0;0;6242651;;;;2025-10-17
"League Challenge";"TCG League Challenge Novembro Kinoene Cards";2025-11-15;"KINOENE CARDS";"53 TV. MAJ. CESAR LEITE, SP 12245-800, BR";"Sao Paulo";"Sao Jose dos Campos";;BR;25-11-000497;76871a02-9627-46cf-8cea-058eef334f72;-23.1897;-45.8864;"2025-11-15 11:00:00";;0;0;0;0;0;6239390;;;;2025-09-18
"League Challenge";"ChallengUSA - NOVEMBRO";2025-11-15;"USA TRENDIES";"TV. DR. RODRIGO ANTÔNIO, 25 - VILA ALPINA, SANTO ANDRÉ - SP, 09090-750, BRAZIL";"Sao Paulo";"Santo Andre";;BR;25-11-003981;a30673a7-1296-4f94-b07f-1e4ee44403d9;-23.6537;-46.5394;"2025-11-15 15:00:00";;0;0;0;0;0;6243697;;;;2025-10-07
"League Challenge";"Challenge Novembro na Panda Games BR";2025-11-15;"PANDA GAMES BR (NEW)";"43 RUA CORONEL LEME RUA CORONEL LEME, 43, SP 12900-340, BR";"Sao Paulo";"Braganca Paulista";;BR;25-11-000644;a7129653-a3af-4ac2-bdb3-a0707b0fc505;-22.9575;-46.5421;"2025-11-15 14:00:00";;0;0;0;0;0;6237649;;;;2025-09-18
"League Cup";"Dream UP League CUP Out-Dez";2025-11-15;"DREAM UP";"RUA LOEFGREN, 927 - VILA MARIANA, SÃO PAULO - SP, 04040-030, BRAZIL";"Sao Paulo";"Sao Paulo";;BR;25-11-001316;b0adb7e1-1ee7-459e-850d-17f72bc3d286;-23.5997;-46.6345;"2025-11-15 10:00:00";;0;0;0;0;0;6236778;;;;2025-09-23
"League Challenge";"TCG League Challenge November";2025-11-15;"DOMINIO NERD";"R. NOVE DE JULHO, 321 - BANZATO, MARÍLIA - SP, 17515-150, BRAZIL";"Sao Paulo";Marilia;;BR;25-11-000716;b575cc31-0ae7-4c9b-b1d7-b8024bde96df;-22.212;-49.9397;"2025-11-15 14:00:00";;0;0;0;0;0;6242625;;;;2025-09-18
"League Cup";"League Cup Novembro - Jackpot Jogos";2025-11-15;JACKPOTJOGOS;"1140 RUA DOM PEDRO II, SP 13560-235, BR";"Sao Paulo";"Sao Carlos";;BR;25-11-001657;d464f286-f9b2-45ba-b7e0-7f0864527458;-22.0148;-47.8878;"2025-11-15 10:00:00";;0;0;0;0;0;6238838;;;;2025-09-25
"League Cup";"League Cup - Bolovo Games #2";2025-11-15;"BOLOVO GAMES";"81 R. MACHADO DE ASSIS, SP 11050-060, BR";"Sao Paulo";Santos;;BR;25-11-000886;d7b637a5-9c3d-48e7-9137-5b298437dcb9;-23.9631;-46.3241;"2025-11-15 13:30:00";;0;0;0;0;0;6237906;;;;2025-09-19
"League Challenge";"League Challenge (Novembro)";2025-11-15;"SALVAIA STORE";"R. CONSELHEIRO FURTADO, 692 - SALA 4 - LIBERDADE, SÃO PAULO - SP, 01511-000, BRAZIL";"Sao Paulo";"Sao Paulo";;BR;25-11-009422;e6a0332d-c190-46ea-93e2-912db0e0c99f;-23.5591;-46.633;"2025-11-15 12:00:00";;0;0;0;0;0;6242920;;;;2025-10-17
"League Challenge";"Leangue Challenge";2025-11-16;AV.8;"AV. 8, 3 - 4 300 - JARDIM CLARET, RIO CLARO - SP, 13503-210, BRAZIL";"Sao Paulo";"Rio Claro";;BR;25-11-011126;0d0fc391-faac-465a-94cc-03e7c7bedd3f;-22.4065;-47.5611;"2025-11-16 14:00:00";;0;0;0;0;0;6244045;;;;2025-10-22
"League Cup";"League CUP OUT-DEZ 25";2025-11-16;"PLAYER'S STOP";"157 R. SÍLVIO BARBOSA RUA SÍLVIO BARBOSA, 157, SP 07111-010, BR";"Sao Paulo";Guarulhos;;BR;25-11-005815;109b2f2d-6fb7-4555-a89f-90fdc5146c92;-23.466;-46.5227;"2025-11-16 10:00:00";;0;0;0;0;0;6233341;;;;2025-10-08
"League Challenge";"Liga Challenger GRADD";2025-11-16;"GRADD CARDS";"AV. ANDRÔMEDA, 2949 - JARDIM SATÉLITE, SÃO JOSÉ DOS CAMPOS - SP, 12233-000, BRAZIL";"Sao Paulo";"Sao Jose dos Campos";;BR;25-11-011099;20d19842-3cbe-4b7e-b9e9-fd6c40f11fb8;-23.2387;-45.8847;"2025-11-16 15:00:00";;0;0;0;0;0;6244176;;;;2025-10-22
"League Cup";"Liga Cup Legacy tcg _10_2025";2025-11-16;"LEGACY TCG";"R. MARIA JOSÉ, QUADRA 8 - VILA SANTA TEREZA, BAURU - SP, 17012-160, BRAZIL";"Sao Paulo";Bauru;;BR;25-10-002184;3ed68f30-430c-4edb-92f0-72d953a61330;-22.3311;-49.0631;"2025-11-16 10:00:00";;0;0;0;0;0;6238617;;;;2025-09-17
"League Cup";"League Cup Oct - Dez  - Meruru Liberdade";2025-11-16;"MERURU LIBERDADE";"526 R. GALVÃO BUENO 526, SP 01506-000, BR";"Sao Paulo";"Sao Paulo";;BR;25-11-000703;653b2924-93c9-4ad0-8ffd-9dadf16e0d3c;-23.5603;-46.635;"2025-11-16 11:00:00";;0;0;0;0;0;6239043;;;;2025-09-18
"League Cup";"League CUP TCG Arena Geek Out.Dez 16.11.25";2025-11-16;"ARENA GEEK";"RUA DR. ARMANDO SALLES DE OLIVEIRA, 138 - BOQUEIRÃO, SANTOS - SP, 11050-070, BRAZIL";"Sao Paulo";Santos;;BR;25-11-011985;986d7730-f1ab-47cd-b6a7-88c2ad2f1e1d;-23.961;-46.3311;"2025-11-16 14:00:00";;0;0;0;0;0;6240797;;;;2025-10-24
"League Cup";"4º LEAGUE CUP - GRAND PRIMO";2025-11-16;PRIMOCARDS;"1374 AVENIDA PROF. HENRIQUE DA M. F. JR., SP 13660-136, BR";"Sao Paulo";"Porto Ferreira";;BR;25-11-002648;c6ab535f-064c-44a8-8705-745dbadbaa07;-21.8639;-47.4877;"2025-11-16 09:00:00";;0;0;0;0;0;6240856;;;;2025-10-01
"League Cup";"Cup da Guilda";2025-11-16;"A GUILDA COLECIONÁVEIS";"1008 R. BERNARDINO DE CAMPOS, SP 13419-100, BR";"Sao Paulo";Piracicaba;;BR;25-11-008240;ef92e410-b4d2-4fe6-ae2c-1c3cebad88c4;-22.7195;-47.6481;"2025-11-16 09:00:00";;0;0;0;0;0;672927;;;;2025-10-15
"League Challenge";"Chuck TCG - League Challenge Novembro 2025";2025-11-18;"CHUCK TCG";"R. NITERÓI, 78 - CENTRO, SÃO CAETANO DO SUL - SP, 09510-210, BRAZIL";"Sao Paulo";"Sao Caetano do Sul";;BR;25-11-000417;6ea88c76-1468-468d-bf04-bebd97ad11f3;-23.6147;-46.5704;"2025-11-18 19:30:00";;0;0;0;0;0;4233203;;;;2025-09-17
"League Challenge";"League Challenge Geek House";2025-11-19;"GEEK COLLECTIONS HOUSE";"R. MAL. FLORIANO PEIXOTO, 87 - CENTRO, AMERICANA - SP, 13465-080, BRAZIL";"Sao Paulo";Americana;;BR;25-11-012265;c69af5b7-a3a6-440b-a8f4-84d45c6cfae4;-22.7447;-47.3277;"2025-11-19 19:00:00";;0;0;0;0;0;6237174;;;;2025-10-24
"League Challenge";"XPLACE LEAGUE CHALLENGE - NOVEMBRO 20/11";2025-11-20;XPLACE;"32 R. JORDÂNIA, SP 03543-000, BR";"Sao Paulo";"Sao Paulo";;BR;25-11-003252;e6f069d2-6bbc-4f1d-9270-ef6027e8feb2;-23.5325;-46.5158;"2025-11-20 13:00:00";;0;0;0;0;0;6240069;;;;2025-10-03
"League Challenge";"Challenge Novembro";2025-11-20;"MUITO! COLECIONÁVEIS";"AV. BRASIL, 1456 - JARDIM GUANABARA, CAMPINAS - SP, 13073-030, BRAZIL";"Sao Paulo";Campinas;;BR;25-11-002749;f6a2da27-e368-4508-8ebb-099805c66ac1;-22.884;-47.0703;"2025-11-20 19:30:00";;0;0;0;0;0;6241555;;;;2025-10-02
"League Challenge";"League Challenge Novembro";2025-11-21;"CHQ JOGOS";"26 R. GALEÃO CARVALHAL JD BELA VISTA, SP 09041-400, BR";"Sao Paulo";"Santo Andre";;BR;25-11-007017;b0ea77e7-7c68-4ddb-b97c-509d5937e866;-23.6683;-46.538;"2025-11-21 19:45:00";;0;0;0;0;0;6242311;;;;2025-10-10
"League Challenge";"Desafio de Liga Novembro";2025-11-22;"BALAIO DE JOGOS";"AV. SÃO VICENTE, 5451 - JARDIM NOEMIA, FRANCA - SP, 14403-720, BRASIL - JARDIM NOEMIA, FRANCA - SP,";"Sao Paulo";Franca;;BR;25-11-002082;729795b5-38ea-40be-88f4-2fdee3e4f054;-20.5609;-47.3716;"2025-11-22 13:00:00";;0;0;0;0;0;6242229;;;;2025-09-28
"League Challenge";"League Challenge Caverna do Dragão Ed5";2025-11-22;"CAVERNA DO DRAGÃO";"R. GOIÁS, 79 - BOQUEIRÃO, SANTOS - SP, 11050-101, BRAZIL";"Sao Paulo";Santos;;BR;25-11-006347;839f3bb6-010e-4537-8cc3-e9efde7777dc;-23.9611;-46.3262;"2025-11-22 12:00:00";;0;0;0;0;0;6243036;;;;2025-10-10
"League Challenge";"Legue Challenge Alpha Jogos";2025-11-22;"ALPHA JOGOS";"R. IPIRANGA, 957 - SALA 5 - JARDIM SANTISTA, MOGI DAS CRUZES - SP, 08730-000, BRAZIL";"Sao Paulo";"Mogi das Cruzes";;BR;25-11-011189;8a3eead9-2e47-4461-a221-bb4f286f523d;-23.529;-46.1994;"2025-11-22 12:00:00";;0;0;0;0;0;6244649;;;;2025-10-22
"League Challenge";"League Challenge EpicVale";2025-11-22;"EPIC VALE";"AV. DR. ADEMAR DE BARROS, 322 - VILA IGUALDADE, SÃO JOSÉ DOS CAMPOS - SP, 12243-620, BRAZIL";"Sao Paulo";"Sao Jose dos Campos";;BR;25-11-002544;8d956a08-da80-4b10-b749-35be50732aec;-23.1949;-45.8911;"2025-11-22 11:30:00";;0;0;0;0;0;6242408;;;;2025-10-01
"League Challenge";"TCG League Challenge de Novembro Citadel";2025-11-25;CITADEL;"R. AMARAL GAMA, 102 - SANTANA, SÃO PAULO - SP, 02018-000, BRAZIL";"Sao Paulo";"Sao Paulo";;BR;25-11-009096;5c95912a-c7a1-41b3-aee7-681c67f0c559;-23.4995;-46.6263;"2025-11-25 20:00:00";;0;0;0;0;0;6240001;;;;2025-10-16
"League Challenge";"League Challenge nOV-25";2025-11-27;"PLAYER'S STOP";"157 R. SÍLVIO BARBOSA RUA SÍLVIO BARBOSA, 157, SP 07111-010, BR";"Sao Paulo";Guarulhos;;BR;25-11-005811;8759df84-9367-49fa-b92d-aef08668e381;-23.466;-46.5227;"2025-11-27 20:00:00";;0;0;0;0;0;6233341;;;;2025-10-08
"League Challenge";"League Challenge - Bazar de Bagdá (Novembro).";2025-11-28;"BAZAR DE BAGDA";"463 R. DR. GABRIEL PIZA, SP 02036-011, BR";"Sao Paulo";"Sao Paulo";;BR;25-11-000372;a519517f-7ebb-413a-84ec-6ae81fb87372;-23.502;-46.6216;"2025-11-28 20:00:00";;0;0;0;0;0;3493201;;;;2025-09-17
"League Cup";"TCG League Cup Out-Dez Citadel";2025-11-29;CITADEL;"R. AMARAL GAMA, 102 - SANTANA, SÃO PAULO - SP, 02018-000, BRAZIL";"Sao Paulo";"Sao Paulo";;BR;25-11-009098;0e3ae6ea-2386-4154-89a6-a07f129b9238;-23.4995;-46.6263;"2025-11-29 11:00:00";;0;0;0;0;0;6240001;;;;2025-10-16
"League Cup";"League Cup - Eternatus Card House";2025-11-29;"ETERNATUS CARD HOUSE";"121 R. CAROLINA LUCCA VAZ, SP 13303-519, BR";"Sao Paulo";Itu;;BR;25-11-001435;0e4b7ccf-d3de-49bf-a929-43accf8e6c96;-23.2763;-47.285;"2025-11-29 10:00:00";;0;0;0;0;0;6103218;;;;2025-09-25
"League Challenge";"Pokemon Imperium Play! League NOvembro";2025-11-29;"IMPEIRUM TCG";"R. PREF. LESSA, 456-506 - CENTRO, ESPÍRITO SANTO DO PINHAL - SP, 13990-000, BRAZIL";"Sao Paulo";"Espirito Santo do Pinhal";;BR;25-11-001338;27005518-7442-4add-8305-0be38314d06c;-22.1995;-46.7474;"2025-11-29 13:00:00";;0;0;0;0;0;6242142;;;;2025-09-23
"League Challenge";"TCG League Challenge Pandora Geek Novembro";2025-11-29;"PANDORA GEEK";"AV. ANDRÔMEDA, 1255 - 3 - JARDIM SATÉLITE, SÃO JOSÉ DOS CAMPOS - SP, 12230-000, BRAZIL";"Sao Paulo";"Sao Jose dos Campos";;BR;25-11-000498;4fecaa49-de02-4478-a6ab-d1b237fb1d64;-23.2241;-45.8863;"2025-11-29 14:00:00";;0;0;0;0;0;6239243;;;;2025-09-18
"League Challenge";"TCG League Challenge - Liga CCG";2025-11-29;"CITY CLASS GAMES";"80 R. INÁCIA OLÍMPIA DE MORÃES, SP 06296-110, BR";"Sao Paulo";"Sao Paulo";;BR;25-11-000642;50efe8ff-7a85-4343-9f53-4307c11a36ec;-23.5191;-46.7537;"2025-11-29 14:00:00";;0;0;0;0;0;6240181;;;;2025-09-18
"League Cup";"League Cup Salvaia (Oct-Dec)";2025-11-29;"SALVAIA STORE";"R. CONSELHEIRO FURTADO, 692 - SALA 4 - LIBERDADE, SÃO PAULO - SP, 01511-000, BRAZIL";"Sao Paulo";"Sao Paulo";;BR;25-11-010022;56cb1e87-fd6e-45e2-b4d6-bd4a13505cf2;-23.5591;-46.633;"2025-11-29 10:00:00";;0;0;0;0;0;6242920;;;;2025-10-19
"League Cup";"Pokémon Cup";2025-11-29;"MUITO! COLECIONÁVEIS";"AV. BRASIL, 1456 - JARDIM GUANABARA, CAMPINAS - SP, 13073-030, BRAZIL";"Sao Paulo";Campinas;;BR;25-11-005433;61d25994-9aec-451e-affe-2e64dfe9f4bc;-22.884;-47.0703;"2025-11-29 15:30:00";;0;0;0;0;0;6241555;;;;2025-10-08
"League Cup";"dg cup";2025-11-29;DG;"90 R. FLORIANO PEIXOTO RUA FLORIANO PEIXOTO, 90 - CENTRO, SP 14870-370, BR";"Sao Paulo";Jaboticabal;;BR;25-11-010106;95a52ccd-e107-48e2-8fd0-575d0117a337;-21.2618;-48.3156;"2025-11-29 09:00:00";;0;0;0;0;0;2353031;;;;2025-10-19
"League Cup";"TCG League Cup - Pimp my Deck - Out-Dez";2025-11-29;"PIMP MY DECK (LOJA NOVA)";"AV. DR. CÂNDIDO MOTTA FILHO, 545 - 39 - JARDIM GUEDALA, SÃO PAULO - SP, 05351-000, BRAZIL";"Sao Paulo";"Sao Paulo";;BR;25-11-009173;b6527cc5-2c99-4220-8d9d-ed07b761be78;-23.5579;-46.7554;"2025-11-29 10:00:00";;0;0;0;0;0;6241502;;;;2025-10-16
"League Challenge";"ESTUDIO VICK - DESAFIO DE LIGA - NOVEMBRO 2025";2025-11-29;"ESTÚDIO VICK";"R. CAMPOS SALES, 159 - CENTRO, TAMBAÚ - SP, 13710-000, BRAZIL";"Sao Paulo";Tambau;;BR;25-11-000343;cf944691-3db5-41b1-909b-a0e9a6f8fb5e;-21.7065;-47.2738;"2025-11-29 13:30:00";;0;0;0;0;0;6241561;;;;2025-09-17
"League Challenge";"CHALLENGE NOVEMBRO - PG-SP";2025-11-30;"PLAYGROUND GAMES";"CALÇADA DAS SAMAMBAIAS, 29 - ALPHAVILLE COMERCIAL, BARUERI - SP, 06453-029, BRAZIL";"Sao Paulo";Barueri;;BR;25-11-001739;2384a1e1-293f-403e-a093-371b6826fec7;-23.4961;-46.8512;"2025-11-30 14:00:00";;0;0;0;0;0;6193219;;;;2025-09-26
"League Cup";"Copa de Liga quarto trimestre";2025-11-30;"BALAIO DE JOGOS";"AV. SÃO VICENTE, 5451 - JARDIM NOEMIA, FRANCA - SP, 14403-720, BRASIL - JARDIM NOEMIA, FRANCA - SP,";"Sao Paulo";Franca;;BR;25-11-002084;23a97813-f8aa-4521-b945-5dbd8bdfd5a3;-20.5609;-47.3716;"2025-11-30 11:00:00";;0;0;0;0;0;6242229;;;;2025-09-28
"League Challenge";"Liga Challenge Gato Guerreiro - Novembro";2025-11-30;"GATO GUERREIRO BAR E JOGOS";"R. GEN. GLICÉRIO, 4152 - VILA REDENTORA, SÃO JOSÉ DO RIO PRETO - SP, 15015-400, BRAZIL";"Sao Paulo";"Sao Jose do Rio Preto";;BR;25-11-008509;3075d232-821f-463a-95ef-51935171eeab;-20.818;-49.3893;"2025-11-30 14:00:00";;0;0;0;0;0;6242152;;;;2025-10-15
"League Challenge";"League Challenge Pokemon Meruru Liberdade - Novembro";2025-11-30;"MERURU LIBERDADE";"526 R. GALVÃO BUENO 526, SP 01506-000, BR";"Sao Paulo";"Sao Paulo";;BR;25-11-000660;32ac5fc2-e9e3-413a-a688-67c41dd33e4a;-23.5603;-46.635;"2025-11-30 11:00:00";;0;0;0;0;0;6239043;;;;2025-09-18
"League Challenge";"Click Cards & Games - League Challenge";2025-11-30;"CLICK CARDS & GAMES";"20 PRAÇA JOÃO PESSOA ANDAR 01, SALA 01, SP 08674-040, BR";"Sao Paulo";Suzano;;BR;25-11-011790;39cd742a-a0a8-4169-b49c-668f219cc46a;-23.5354;-46.3097;"2025-11-30 14:00:00";;0;0;0;0;0;6240565;;;;2025-10-24
"League Cup";"LEAGUE CUP - MEGA EVOLUÇÃO";2025-11-30;"RAYEARTH GAMES";"1612 AV. DEP. DANTE DELMANTO, SP 18608-393, BR";"Sao Paulo";Botucatu;;BR;25-11-005837;49e280cc-2e12-44ec-9ff9-6ab1517c78e4;-22.8713;-48.4485;"2025-11-30 10:00:00";;0;0;0;0;0;6237633;;;;2025-10-08
"League Cup";"LEAGUE CUP MAIN DECK";2025-11-30;"MAIN DECK";"R. GALVÃO BUENO, 714 - 2º ANDAR - LIBERDADE, SÃO PAULO - SP, 01506-000, BRAZIL";"Sao Paulo";"Sao Paulo";;BR;25-11-008845;52b57ef3-f6cf-414d-9761-5e65bd5e4cdf;-23.562;-46.6349;"2025-11-30 10:00:00";;0;0;0;0;0;6243756;;;;2025-10-16
"League Challenge";"Epic League Challenge";2025-11-30;"EPIC GAME SÃO PAULO";"R. DA GLÓRIA, 117 - LIBERDADE, SÃO PAULO - SP, 01510-001, BRAZIL";"Sao Paulo";"Sao Paulo";;BR;25-11-000488;9b7f06ce-8e27-4839-816d-0ab01de14840;-23.5542;-46.634;"2025-11-30 11:00:00";;0;0;0;0;0;4083208;;;;2025-09-18
"League Challenge";"League Challenge - Eternatus Card House";2025-12-02;"ETERNATUS CARD HOUSE";"121 R. CAROLINA LUCCA VAZ, SP 13303-519, BR";"Sao Paulo";Itu;;BR;25-12-001177;4b3bd17f-bd20-4985-9582-1fe3b8e7145b;-23.2763;-47.285;"2025-12-02 19:30:00";;0;0;0;0;0;6103218;;;;2025-09-25
"League Challenge";"Chuck TCG - League Challenge Dezembro 2025";2025-12-04;"CHUCK TCG";"R. NITERÓI, 78 - CENTRO, SÃO CAETANO DO SUL - SP, 09510-210, BRAZIL";"Sao Paulo";"Sao Caetano do Sul";;BR;25-12-000350;6a42e1c8-9fff-4647-b0c9-cde7a707dde3;-23.6147;-46.5704;"2025-12-04 19:30:00";;0;0;0;0;0;4233203;;;;2025-09-17
"League Challenge";"Piticas Plaza Sul Challenge TCG 12_2025";2025-12-06;"PITICAS_XP PLAZA SUL";"PRAÇA LEONOR KAUPA, 100 - JARDIM DA SAÚDE, SÃO PAULO - SP, 04151-900, BRAZIL";"Sao Paulo";"Sao Paulo";;BR;25-12-003311;0dda9256-5d79-49ff-9876-61f2c6d901c0;-23.6197;-46.6268;"2025-12-06 11:00:00";;0;0;0;0;0;2293017;;;;2025-10-19
"League Challenge";"TCG League Challenge Dezembro Kinoene Cards";2025-12-06;"KINOENE CARDS";"53 TV. MAJ. CESAR LEITE, SP 12245-800, BR";"Sao Paulo";"Sao Jose dos Campos";;BR;25-12-000413;4294c194-9ed4-450a-9793-3c50757269b7;-23.1897;-45.8864;"2025-12-06 11:00:00";;0;0;0;0;0;6239390;;;;2025-09-18
"League Cup";"LEAGU CUP - XPLACE";2025-12-06;XPLACE;"32 R. JORDÂNIA, SP 03543-000, BR";"Sao Paulo";"Sao Paulo";;BR;25-12-002256;7ed7d3f1-d4cc-47b1-97ad-381c6a2ffcd5;-23.5325;-46.5158;"2025-12-06 11:00:00";;0;0;0;0;0;6240069;;;;2025-10-03
"League Cup";"TABERNA GAMES - POKEMON";2025-12-06;"TABERNA GAMES - LOJA";"R. RUI BARBOSA, 351 - RIBEIRO, LINS - SP, 16401-040, BRAZIL";"Sao Paulo";Lins;;BR;25-10-017743;7f0d9437-6c42-47bf-808f-b31b0e2c4cde;-21.6698;-49.7453;"2025-12-06 14:00:00";;0;0;0;0;0;6243561;;;;2025-10-20
"League Cup";"Coliseu Cup 15-11-2025";2025-12-06;"COLISEU TCG";"R. SÃO JOSÉ, 16 - VILA PARAISO, MOGI GUAÇU - SP, 13844-000, BRAZIL";"Sao Paulo";"Mogi Guacu";;BR;25-11-002010;9b4c1307-ea3b-4d06-bb1a-467c0ba4dac8;-22.3742;-46.9416;"2025-12-06 10:00:00";;0;0;0;0;0;6241985;;;;2025-09-28
"League Challenge";"Liga Challenge SpellCast";2025-12-06;"SPELLCAST GAMES";"AV. DR. TIMÓTEO PENTEADO, 2778 - SOBRELOJA - VILA SAO JUDAS TADEU, GUARULHOS - SP, 07061-000, BRAZIL";"Sao Paulo";Guarulhos;;BR;25-12-001863;b5c6f223-eb82-4335-bc3f-53f9b9d037b5;-23.4513;-46.5507;"2025-12-06 14:00:00";;0;0;0;0;0;6242745;;;;2025-10-01
"League Cup";"League Cup";2025-12-06;"LOJA FARAWAY";"60 AV. BERNARDINO DE CAMPOS CENTRO, SP 12600-200, BR";"Sao Paulo";Lorena;;BR;25-12-002314;ca3ab047-3653-47d4-aca9-d96b570cdf2d;-22.7302;-45.1232;"2025-12-06 02:30:00";;0;0;0;0;0;6239316;;;;2025-10-07
"League Challenge";"TCG LEAGUE CHALLENGE (DEZEMBRO) - POLAR JOGOS";2025-12-06;"POLAR JOGOS";"2013 ALAMEDA DOS NHAMBIQUARAS SUBSOLO - COLETIVO GEEK, SP 04090-013, BR";"Sao Paulo";"Sao Paulo";;BR;25-12-000318;e70e8bb2-a5b1-41bd-8f10-165ce6dd74a4;-23.6147;-46.6663;"2025-12-06 11:00:00";;0;0;0;0;0;6233645;;;;2025-09-17
"League Cup";"Epic League Cup";2025-12-07;"EPIC GAME SÃO PAULO";"R. DA GLÓRIA, 117 - LIBERDADE, SÃO PAULO - SP, 01510-001, BRAZIL";"Sao Paulo";"Sao Paulo";;BR;25-12-000405;0473084b-528c-4ffe-b79f-afc032bd2295;-23.5542;-46.634;"2025-12-07 11:00:00";;0;0;0;0;0;4083208;;;;2025-09-18
"League Challenge";"League Challenge TCG Dez Arena Geek 07.12.25";2025-12-07;"ARENA GEEK";"RUA DR. ARMANDO SALLES DE OLIVEIRA, 138 - BOQUEIRÃO, SANTOS - SP, 11050-070, BRAZIL";"Sao Paulo";Santos;;BR;25-12-003529;1813697c-81ea-4cd6-9670-34fac40e86e2;-23.961;-46.3311;"2025-12-07 14:00:00";;0;0;0;0;0;6240797;;;;2025-10-24
"League Challenge";"Desafios TCG O PORTAL GEEK STORE - DEZ";2025-12-07;"O PORTAL GEEK STORE";"AV. ROLAND GARROS, 782 - JARDIM BRASIL, SÃO PAULO - SP, 02235-000, BRAZIL";"Sao Paulo";"Sao Paulo";;BR;25-12-002189;1eab3de7-a650-418d-a376-66a8971f5884;-23.4801;-46.5801;"2025-12-07 12:00:00";;0;0;0;0;0;6244087;;;;2025-10-02
"League Challenge";"CHALLENGE DEZEMBRO - PG-SP";2025-12-07;"PLAYGROUND GAMES";"CALÇADA DAS SAMAMBAIAS, 29 - ALPHAVILLE COMERCIAL, BARUERI - SP, 06453-029, BRAZIL";"Sao Paulo";Barueri;;BR;25-12-001423;3224343d-02a7-4bee-b028-2d22c4a55528;-23.4961;-46.8512;"2025-12-07 14:00:00";;0;0;0;0;0;6193219;;;;2025-09-26
"League Cup";"League CUP 2026 - Out/Dez";2025-12-07;"BARDOS GAME STORE";"466 R. CEL. ERNESTO DE OLIVEIRA, SP 13870-249, BR";"Sao Paulo";"Sao Joao da Boa Vista";;BR;25-12-002288;51bd9559-aefa-4502-8868-e92341592075;-21.9799;-46.7958;"2025-12-07 10:00:00";;0;0;0;0;0;6238556;;;;2025-10-07
"League Cup";"League Cup Gato Guerreiro - Dezembro";2025-12-07;"GATO GUERREIRO BAR E JOGOS";"R. GEN. GLICÉRIO, 4152 - VILA REDENTORA, SÃO JOSÉ DO RIO PRETO - SP, 15015-400, BRAZIL";"Sao Paulo";"Sao Jose do Rio Preto";;BR;25-12-003069;56afd6ea-6cdd-434c-a4e0-36e904335c6a;-20.818;-49.3893;"2025-12-07 10:00:00";;0;0;0;0;0;6242152;;;;2025-10-15
"League Cup";"LEAGUE CUP NOVEMBRO FLOW GEEKS";2025-12-07;"FLOW GEEK STORE";"ESTR. DOS ALVARENGAS, 2550 - ASSUNÇÃO, SÃO BERNARDO DO CAMPO - SP, 09850-550, BRAZIL";"Sao Paulo";"Sao Bernardo do Campo";;BR;25-11-000706;5fc8814f-a0ac-42ee-a708-2a4f1c1a1f00;-23.7278;-46.577;"2025-12-07 14:00:00";;0;0;0;0;0;6243409;;;;2025-09-18
"League Challenge";"LEAGUE CHALLENGE - DEZEMBRO";2025-12-07;"RAYEARTH GAMES";"1612 AV. DEP. DANTE DELMANTO, SP 18608-393, BR";"Sao Paulo";Botucatu;;BR;25-12-002690;674bee61-a599-43a4-b586-2be124c55740;-22.8713;-48.4485;"2025-12-07 10:00:00";;0;0;0;0;0;6237633;;;;2025-10-08
"League Challenge";"Challenger Lendario TCG 07-12-25";2025-12-07;"LENDÁRIO CARD GAMES";"AV. CELSO GARCIA, 4367 - TATUAPÉ, SÃO PAULO - SP, 03063-000, BRAZIL";"Sao Paulo";"Sao Paulo";;BR;25-12-001930;7e986c38-e0c5-4f7d-854f-833d4f7188dc;-23.5354;-46.5703;"2025-12-07 14:00:00";;0;0;0;0;0;6245402;;;;2025-10-01
"League Challenge";"Liga Challenger GRADD";2025-12-07;"GRADD CARDS";"AV. ANDRÔMEDA, 2949 - JARDIM SATÉLITE, SÃO JOSÉ DOS CAMPOS - SP, 12233-000, BRAZIL";"Sao Paulo";"Sao Jose dos Campos";;BR;25-12-003440;87c87592-00c6-495d-9e91-e5167fa9472d;-23.2387;-45.8847;"2025-12-07 15:00:00";;0;0;0;0;0;6244176;;;;2025-10-22
"League Cup";"league Cup December";2025-12-07;"LOJA DO TOGURO";"AV. DOM PEDRO II, 359 - 1 - JARDIM, SANTO ANDRÉ - SP, 09090-521, BRAZIL";"Sao Paulo";"Santo Andre";;BR;25-12-002027;c1adceb4-67a1-411a-b299-e6dff918c445;-23.6832;-46.5085;"2025-12-07 15:00:00";;0;0;0;0;0;6242421;;;;2025-10-01
"League Cup";"TCG League Cup Versus Game Club";2025-12-07;"VERSUS GAME CLUB";"AV. JUSCELINO KUBITSCHEK DE OLIVEIRA, 441 - JARDIM DOS CISNES, SÃO BENTO DO SAPUCAÍ - SP, 12490-000,";"Sao Paulo";"Sao Bento do Sapucai";;BR;25-12-001637;eb1e0c91-57dd-4c0c-ac7e-deba21e0478c;-22.6859;-45.731;"2025-12-07 10:00:00";;0;0;0;0;0;6242789;;;;2025-09-28
"League Challenge";"LEAGUE CHALLENGE DEZEMBRO FLOW GEEKs";2025-12-09;"FLOW GEEK STORE";"ESTR. DOS ALVARENGAS, 2550 - ASSUNÇÃO, SÃO BERNARDO DO CAMPO - SP, 09850-550, BRAZIL";"Sao Paulo";"Sao Bernardo do Campo";;BR;25-12-000606;63a18d84-d5cb-43fc-872e-b1933308e072;-23.7278;-46.577;"2025-12-09 19:30:00";;0;0;0;0;0;6243409;;;;2025-09-18
"League Challenge";"League Challenge NW (Dezembro/2025)";2025-12-10;"NEOWALKERS GEEKSTORE";"R. PASSO FUNDO, 87 - JARDIM SÃO JORGE, GUARULHOS - SP, 07111-210, BRAZIL";"Sao Paulo";Guarulhos;;BR;25-12-000347;131c7ed0-cf21-4358-a264-6ebaad915007;-23.4609;-46.5229;"2025-12-10 20:00:00";;0;0;0;0;0;6245128;;;;2025-09-17
"League Challenge";"Challenge de Dezembro";2025-12-11;"A GUILDA COLECIONÁVEIS";"1008 R. BERNARDINO DE CAMPOS, SP 13419-100, BR";"Sao Paulo";Piracicaba;;BR;25-12-003035;07a2d658-acde-4c14-ba13-ac030ff1faf8;-22.7195;-47.6481;"2025-12-11 19:00:00";;0;0;0;0;0;672927;;;;2025-10-15
"League Challenge";"Artplay League Challenge 12.2025";2025-12-11;ARTPLAY;"45 R. ONZE DE AGOSTO 2º ANDAR, SP 18270-001, BR";"Sao Paulo";Tatui;;BR;25-12-001243;17a0f457-06a8-41f3-957a-4be85c614f5b;-23.3474;-47.8471;"2025-12-11 19:00:00";;0;0;0;0;0;6239050;;;;2025-09-25
"League Challenge";"League Challenge Dezembro - Jackpot Jogos";2025-12-11;JACKPOTJOGOS;"1140 RUA DOM PEDRO II, SP 13560-235, BR";"Sao Paulo";"Sao Carlos";;BR;25-12-001366;58cf9d74-c4b6-43dc-aa93-7aa35573355c;-22.0148;-47.8878;"2025-12-11 19:30:00";;0;0;0;0;0;6238838;;;;2025-09-25
"League Challenge";"League Challenge DEZ-25";2025-12-11;"PLAYER'S STOP";"157 R. SÍLVIO BARBOSA RUA SÍLVIO BARBOSA, 157, SP 07111-010, BR";"Sao Paulo";Guarulhos;;BR;25-12-002685;a5998948-89c6-402b-b4e2-c608e000db2a;-23.466;-46.5227;"2025-12-11 20:00:00";;0;0;0;0;0;6233341;;;;2025-10-08
"League Challenge";"League Challenge Dezembro - Bird Games - 12/12";2025-12-12;"BIRD GAMES";"RUA CARDEAL ARCOVERDE, 1595 - 1° ANDAR - PINHEIROS, SÃO PAULO - SP, 05407-002, BRAZIL";"Sao Paulo";"Sao Paulo";;BR;25-12-000882;7ce112dd-a078-463d-8670-a75561fe332e;-23.5609;-46.6869;"2025-12-12 19:30:00";;0;0;0;0;0;6244112;;;;2025-09-22
"League Challenge";"Challenge X1 Arena";2025-12-12;"X1 - ARENA";"R. QUINZE DE NOVEMBRO, 1071 - CENTRO, INDAIATUBA - SP, 13330-070, BRAZIL";"Sao Paulo";Indaiatuba;;BR;25-12-001321;d8aa2c9c-c1d0-42a4-b8ed-5d30918f37b8;-23.0845;-47.2143;"2025-12-12 19:30:00";;0;0;0;0;0;6241564;;;;2025-09-25
"League Challenge";Pokéween;2025-12-13;"FLOW GAMES";"RUA DONA GENOVEVA D'ASCOLI, 17 - VILA PRUDENTE, SÃO PAULO - SP, 03132-070, BRAZIL";"Sao Paulo";"Sao Paulo";;BR;25-12-002596;28743336-139e-4351-a20e-6def372d7e8b;-23.5816;-46.5849;"2025-12-13 14:00:00";;0;0;0;0;0;6240671;;;;2025-10-08
"League Cup";"TCG League Cup - Liga CCG";2025-12-13;"CITY CLASS GAMES";"80 R. INÁCIA OLÍMPIA DE MORÃES, SP 06296-110, BR";"Sao Paulo";"Sao Paulo";;BR;25-12-000538;2a9c16fd-e6c1-4ca3-ab46-bec1223a4b59;-23.5191;-46.7537;"2025-12-13 14:00:00";;0;0;0;0;0;6240181;;;;2025-09-18
"League Challenge";"TCG League Challenge December";2025-12-13;"DOMINIO NERD";"R. NOVE DE JULHO, 321 - BANZATO, MARÍLIA - SP, 17515-150, BRAZIL";"Sao Paulo";Marilia;;BR;25-12-000622;3ca954fc-e27a-47a9-b94f-5f8298fd43e5;-22.212;-49.9397;"2025-12-13 14:00:00";;0;0;0;0;0;6242625;;;;2025-09-18
"League Challenge";"League Challenge EpicVale";2025-12-13;"EPIC VALE";"AV. DR. ADEMAR DE BARROS, 322 - VILA IGUALDADE, SÃO JOSÉ DOS CAMPOS - SP, 12243-620, BRAZIL";"Sao Paulo";"Sao Jose dos Campos";;BR;25-12-001970;49ebccdd-9a66-4291-88e1-aef19c1defa8;-23.1949;-45.8911;"2025-12-13 11:30:00";;0;0;0;0;0;6242408;;;;2025-10-01
"League Challenge";"Desafio de liga de Dezembro";2025-12-13;"BALAIO DE JOGOS";"AV. SÃO VICENTE, 5451 - JARDIM NOEMIA, FRANCA - SP, 14403-720, BRASIL - JARDIM NOEMIA, FRANCA - SP,";"Sao Paulo";Franca;;BR;25-12-001645;4c940ec3-445e-4e86-a979-141d888b683e;-20.5609;-47.3716;"2025-12-13 13:00:00";;0;0;0;0;0;6242229;;;;2025-09-28
"League Challenge";"ChallengUSA - DEZEMBRO";2025-12-13;"USA TRENDIES";"TV. DR. RODRIGO ANTÔNIO, 25 - VILA ALPINA, SANTO ANDRÉ - SP, 09090-750, BRAZIL";"Sao Paulo";"Santo Andre";;BR;25-12-002328;5e02151a-8b2b-4b29-945f-5476687d5d9c;-23.6537;-46.5394;"2025-12-13 15:00:00";;0;0;0;0;0;6243697;;;;2025-10-07
"League Challenge";"League Challange";2025-12-13;"LOJA FARAWAY";"60 AV. BERNARDINO DE CAMPOS CENTRO, SP 12600-200, BR";"Sao Paulo";Lorena;;BR;25-12-002315;69c4269d-cfee-4252-8f78-823d4fdd70f1;-22.7302;-45.1232;"2025-12-13 00:00:00";;0;0;0;0;0;6239316;;;;2025-10-07
"League Challenge";"Leangue Challenge - Dezembro";2025-12-13;AV.8;"AV. 8, 3 - 4 300 - JARDIM CLARET, RIO CLARO - SP, 13503-210, BRAZIL";"Sao Paulo";"Rio Claro";;BR;25-12-003445;6b405140-cfc7-474d-9b3a-cf6f871882ce;-22.4065;-47.5611;"2025-12-13 14:00:00";;0;0;0;0;0;6244045;;;;2025-10-22
"League Challenge";"Desafio da Liga Dezembro 2025";2025-12-13;"LETRAS EM FESTA";"707 AV. DEZENOVE DE MAIO CENTRO, SP 11250-000, BR";"Sao Paulo";Bertioga;;BR;25-12-000916;8ac62c20-b71a-45f3-97c6-feb0f1a385f5;-23.832;-46.1351;"2025-12-13 13:00:00";;0;0;0;0;0;2413111;;;;2025-09-22
"League Challenge";"TCG Challenge de Dezembro Freak Games";2025-12-13;"FREAK GAMES";"R. ALFREDO PUJOL, 545 - LOJA 1 - SANTANA, SÃO PAULO - SP, 02017-000, BRAZIL";"Sao Paulo";"Sao Paulo";;BR;25-12-003199;8dd91c30-b527-4786-bf2b-ef6b2a6c93ab;-23.5003;-46.6313;"2025-12-13 13:00:00";;0;0;0;0;0;6242651;;;;2025-10-17
"League Challenge";"dg challenge";2025-12-13;DG;"90 R. FLORIANO PEIXOTO RUA FLORIANO PEIXOTO, 90 - CENTRO, SP 14870-370, BR";"Sao Paulo";Jaboticabal;;BR;25-12-003290;9cdc1be4-861f-473f-bd62-d5dbd349135b;-21.2618;-48.3156;"2025-12-13 09:00:00";;0;0;0;0;0;2353031;;;;2025-10-19
"League Challenge";"Challenge Dezembro na Panda Games BR";2025-12-13;"PANDA GAMES BR (NEW)";"43 RUA CORONEL LEME RUA CORONEL LEME, 43, SP 12900-340, BR";"Sao Paulo";"Braganca Paulista";;BR;25-12-000544;a2b044f4-727d-463a-8c68-343ca6371960;-22.9575;-46.5421;"2025-12-13 14:00:00";;0;0;0;0;0;6237649;;;;2025-09-18
"League Cup";"Artplay League Cup 12.2025";2025-12-13;ARTPLAY;"45 R. ONZE DE AGOSTO 2º ANDAR, SP 18270-001, BR";"Sao Paulo";Tatui;;BR;25-12-001244;a7c4e953-fc1f-41ca-b4e1-e2ca974b6886;-23.3474;-47.8471;"2025-12-13 10:00:00";;0;0;0;0;0;6239050;;;;2025-09-25
"League Challenge";"ESTUDIO VICK - DESAFIO DE LIGA - DEZEMBRO 2025";2025-12-13;"ESTÚDIO VICK";"R. CAMPOS SALES, 159 - CENTRO, TAMBAÚ - SP, 13710-000, BRAZIL";"Sao Paulo";Tambau;;BR;25-12-000285;f468c2cb-ec69-4447-8155-fd1ed59c1841;-21.7065;-47.2738;"2025-12-13 13:30:00";;0;0;0;0;0;6241561;;;;2025-09-17
"League Challenge";"League Challenge Gato Guerreiro - Dezembro";2025-12-14;"GATO GUERREIRO BAR E JOGOS";"R. GEN. GLICÉRIO, 4152 - VILA REDENTORA, SÃO JOSÉ DO RIO PRETO - SP, 15015-400, BRAZIL";"Sao Paulo";"Sao Jose do Rio Preto";;BR;25-12-003070;0f3034a5-def9-4a64-8670-570b1284d0d0;-20.818;-49.3893;"2025-12-14 14:00:00";;0;0;0;0;0;6242152;;;;2025-10-15
"League Cup";"ESTUDIO VICK - COPA DE LIGA";2025-12-14;"ESTÚDIO VICK";"R. CAMPOS SALES, 159 - CENTRO, TAMBAÚ - SP, 13710-000, BRAZIL";"Sao Paulo";Tambau;;BR;25-11-000349;2dee13d9-f0a0-4df3-ad36-a2bea9c8c033;-21.7065;-47.2738;"2025-12-14 10:00:00";;0;0;0;0;0;6241561;;;;2025-09-17
"League Challenge";"TCG League Challenge de Dezembro Citadel";2025-12-16;CITADEL;"R. AMARAL GAMA, 102 - SANTANA, SÃO PAULO - SP, 02018-000, BRAZIL";"Sao Paulo";"Sao Paulo";;BR;25-12-003163;d7a92ae7-bc40-40ac-9ed2-4dfe9762a1a6;-23.4995;-46.6263;"2025-12-16 20:00:00";;0;0;0;0;0;6240001;;;;2025-10-16
"League Challenge";"League Challenge Geek House";2025-12-17;"GEEK COLLECTIONS HOUSE";"R. MAL. FLORIANO PEIXOTO, 87 - CENTRO, AMERICANA - SP, 13465-080, BRAZIL";"Sao Paulo";Americana;;BR;25-12-003547;6b32c9b5-0984-4002-a779-f23f30b03041;-22.7447;-47.3277;"2025-12-17 19:00:00";;0;0;0;0;0;6237174;;;;2025-10-24
"League Challenge";"Challenge Dezembro";2025-12-18;"MUITO! COLECIONÁVEIS";"AV. BRASIL, 1456 - JARDIM GUANABARA, CAMPINAS - SP, 13073-030, BRAZIL";"Sao Paulo";Campinas;;BR;25-12-002111;80c68c36-d256-4194-861f-21bd90f6516f;-22.884;-47.0703;"2025-12-18 19:30:00";;0;0;0;0;0;6241555;;;;2025-10-02
"League Challenge";"League Challenge - Bazar de Bagdá (Dezembro).";2025-12-19;"BAZAR DE BAGDA";"463 R. DR. GABRIEL PIZA, SP 02036-011, BR";"Sao Paulo";"Sao Paulo";;BR;25-12-000319;6dbf7d6e-211d-4331-b4d7-fd7c983dcab6;-23.502;-46.6216;"2025-12-19 20:00:00";;0;0;0;0;0;3493201;;;;2025-09-17
"League Challenge";"TCG League Challenge - Liga CCG";2025-12-20;"CITY CLASS GAMES";"80 R. INÁCIA OLÍMPIA DE MORÃES, SP 06296-110, BR";"Sao Paulo";"Sao Paulo";;BR;25-12-000541;94e4d250-51a7-4d98-b412-be7ab5ca85df;-23.5191;-46.7537;"2025-12-20 14:00:00";;0;0;0;0;0;6240181;;;;2025-09-18
"League Challenge";"TCG League Challenge Pandora Geek Dezembro";2025-12-20;"PANDORA GEEK";"AV. ANDRÔMEDA, 1255 - 3 - JARDIM SATÉLITE, SÃO JOSÉ DOS CAMPOS - SP, 12230-000, BRAZIL";"Sao Paulo";"Sao Jose dos Campos";;BR;25-12-000414;9e687b35-fc9c-497e-9d36-5fc59414e49e;-23.2241;-45.8863;"2025-12-20 14:00:00";;0;0;0;0;0;6239243;;;;2025-09-18
"League Challenge";"League Challenge Caverna do Dragão Ed6";2025-12-20;"CAVERNA DO DRAGÃO";"R. GOIÁS, 79 - BOQUEIRÃO, SANTOS - SP, 11050-101, BRAZIL";"Sao Paulo";Santos;;BR;25-12-002808;ebbab72a-c662-48ac-868d-67a91dc42b23;-23.9611;-46.3262;"2025-12-20 12:00:00";;0;0;0;0;0;6243036;;;;2025-10-10
"League Challenge";"League Challenge Pokemon Meruru Liberdade - Dezembro";2025-12-21;"MERURU LIBERDADE";"526 R. GALVÃO BUENO 526, SP 01506-000, BR";"Sao Paulo";"Sao Paulo";;BR;25-12-000565;0c1ffe8f-8ec3-4d14-8181-5545ff0bc608;-23.5603;-46.635;"2025-12-21 11:00:00";;0;0;0;0;0;6239043;;;;2025-09-18
"League Cup";"TCG League Cup October - December";2025-12-21;"DOMINIO NERD";"R. NOVE DE JULHO, 321 - BANZATO, MARÍLIA - SP, 17515-150, BRAZIL";"Sao Paulo";Marilia;;BR;25-12-000623;4d78c75d-a957-49ff-8f9b-85278e7f8a92;-22.212;-49.9397;"2025-12-21 00:10:00";;0;0;0;0;0;6242625;;;;2025-09-18
"League Challenge";"League Challenge 2026 - Dezembro";2025-12-21;"BARDOS GAME STORE";"466 R. CEL. ERNESTO DE OLIVEIRA, SP 13870-249, BR";"Sao Paulo";"Sao Joao da Boa Vista";;BR;25-12-002287;a41eddd0-ab6d-4f07-8505-42b9908cf54b;-21.9799;-46.7958;"2025-12-21 10:00:00";;0;0;0;0;0;6238556;;;;2025-10-07
"League Challenge";"Epic League Challenge";2025-12-21;"EPIC GAME SÃO PAULO";"R. DA GLÓRIA, 117 - LIBERDADE, SÃO PAULO - SP, 01510-001, BRAZIL";"Sao Paulo";"Sao Paulo";;BR;25-12-000404;e04ccf42-148d-4053-b2c3-c62ee7c9a73e;-23.5542;-46.634;"2025-12-21 11:00:00";;0;0;0;0;0;4083208;;;;2025-09-18
"League Challenge";"XPLACE LEAGUE CHALLENGE - DEZEMBRO 27/12";2025-12-27;XPLACE;"32 R. JORDÂNIA, SP 03543-000, BR";"Sao Paulo";"Sao Paulo";;BR;25-12-002255;6a7a8dc6-54f2-4c33-b8af-7cdd2dfc06b8;-23.5325;-46.5158;"2025-12-27 13:00:00";;0;0;0;0;0;6240069;;;;2025-10-03
"League Challenge";"Pokemon Imperium Play! League Dezembro";2025-12-27;"IMPEIRUM TCG";"R. PREF. LESSA, 456-506 - CENTRO, ESPÍRITO SANTO DO PINHAL - SP, 13990-000, BRAZIL";"Sao Paulo";"Espirito Santo do Pinhal";;BR;25-12-001104;b6f8ac35-b8ec-4da1-aea7-6e9d32ec7eed;-22.1995;-46.7474;"2025-12-27 13:00:00";;0;0;0;0;0;6242142;;;;2025-09-23
